place_name,state,postcode,latitude,longitude,lga_name,category
Aarons Pass,New South Wales,2850,-32.87908461,149.80289077,Mid-Western,Regional centres and other regional areas
Abercrombie,New South Wales,2795,-33.3899598,149.55643644,Bathurst,Regional centres and other regional areas
Abercrombie River,New South Wales,2795,-33.91033162,149.34767205,Bathurst,Regional centres and other regional areas
Aberdare,New South Wales,2325,-32.84213894,151.38832105,Cessnock,Regional centres and other regional areas
Aberdeen (NSW),New South Wales,2336,-32.17381622,150.89161741,Upper Hunter,Regional centres and other regional areas
Aberfoyle,New South Wales,2350,-30.23630674,151.97861441,Armidale,Regional centres and other regional areas
Aberglasslyn,New South Wales,2320,-32.69485714,151.53394035,Maitland,Regional centres and other regional areas
Abermain,New South Wales,2326,-32.8332512,151.44920928,Cessnock,Regional centres and other regional areas
Abernethy,New South Wales,2325,-32.88752229,151.4022006,Cessnock,Regional centres and other regional areas
Abington (NSW),New South Wales,2350,-30.31806154,151.23637691,Uralla,Regional centres and other regional areas
Acacia Creek,New South Wales,2476,-28.37616929,152.31900386,Tenterfield,Regional centres and other regional areas
Adaminaby,New South Wales,2629,-36.01194695,148.78631867,Snowy Monaro,Regional centres and other regional areas
Adamstown,New South Wales,2289,-32.93823719,151.72536905,Newcastle,Cities and major regional centres
Adamstown Heights,New South Wales,2289,-32.94893136,151.71061411,Newcastle,Cities and major regional centres
Adelong,New South Wales,2729,-35.30663412,148.06976479,Snowy Valleys,Regional centres and other regional areas
Adjungbilly,New South Wales,2727,-35.04148807,148.44035912,Cootamundra-Gundagai,Regional centres and other regional areas
Afterlee,New South Wales,2474,-28.58083875,152.82553944,Kyogle,Regional centres and other regional areas
Agnes Banks,New South Wales,2753,-33.62238576,150.70243946,Penrith,Regional centres and other regional areas
Akolele,New South Wales,2546,-36.34808032,150.0760595,Eurobodalla,Regional centres and other regional areas
Albert,New South Wales,2873,-32.38477019,147.47690074,Lachlan,Regional centres and other regional areas
Albion Park,New South Wales,2527,-34.58223827,150.7772622,Shellharbour,Regional centres and other regional areas
Albion Park Rail,New South Wales,2527,-34.56182812,150.79487304,Shellharbour,Regional centres and other regional areas
Albury,New South Wales,2640,-36.07374266,146.91347495,Albury,Regional centres and other regional areas
Aldavilla,New South Wales,2440,-31.07422365,152.76204601,Kempsey,Regional centres and other regional areas
Alectown,New South Wales,2870,-32.91426186,148.26802016,Parkes,Regional centres and other regional areas
Alfredtown,New South Wales,2650,-35.15320347,147.54146111,Wagga Wagga,Regional centres and other regional areas
Alice,New South Wales,2469,-29.05336074,152.58966399,Clarence Valley,Regional centres and other regional areas
Alison (Central Coast - NSW),New South Wales,2259,-33.26467546,151.39669711,Central Coast (NSW),Cities and major regional centres
Alison (Dungog - NSW),New South Wales,2420,-32.42854811,151.77252391,Dungog,Regional centres and other regional areas
Allandale (NSW),New South Wales,2320,-32.72676741,151.41363381,Cessnock,Regional centres and other regional areas
Alleena,New South Wales,2671,-34.09397076,147.13349946,Bland,Regional centres and other regional areas
Allgomera,New South Wales,2441,-30.81815647,152.79552124,Nambucca Valley,Regional centres and other regional areas
Allworth,New South Wales,2425,-32.54144571,151.94508524,Mid-Coast,Regional centres and other regional areas
Allynbrook,New South Wales,2311,-32.35152921,151.54849678,Dungog,Regional centres and other regional areas
Alma Park,New South Wales,2659,-35.60099728,146.80080414,Greater Hume,Regional centres and other regional areas
Alpine,New South Wales,2575,-34.40870329,150.53680096,Wingecarribee,Regional centres and other regional areas
Alstonvale,New South Wales,2477,-28.79385848,153.44398647,Ballina,Regional centres and other regional areas
Alstonville,New South Wales,2477,-28.84055607,153.44969699,Ballina,Regional centres and other regional areas
Alumy Creek,New South Wales,2460,-29.64396003,152.95635401,Clarence Valley,Regional centres and other regional areas
Amaroo (NSW),New South Wales,2866,-33.16430985,148.92084699,Cabonne,Regional centres and other regional areas
Anabranch North,New South Wales,2648,-33.2963437,141.80230051,Wentworth,Regional centres and other regional areas
Anabranch South,New South Wales,2648,-33.71400103,141.68989222,Wentworth,Regional centres and other regional areas
Anambah,New South Wales,2320,-32.67918729,151.49505052,Maitland,Regional centres and other regional areas
Ando,New South Wales,2631,-36.733389,149.29424916,Snowy Monaro,Regional centres and other regional areas
Anembo,New South Wales,2621,-35.77530174,149.44797008,Snowy Monaro,Regional centres and other regional areas
Angledale,New South Wales,2550,-36.63450508,149.87496796,Bega Valley,Regional centres and other regional areas
Angledool,New South Wales,2834,-29.12161786,147.9287562,Walgett,Regional centres and other regional areas
Anglers Reach,New South Wales,2629,-36.01019356,148.68634092,Snowy Monaro,Regional centres and other regional areas
Angourie,New South Wales,2464,-29.47856647,153.35547609,Clarence Valley,Regional centres and other regional areas
Anna Bay,New South Wales,2316,-32.77035158,152.07448098,Port Stephens,Regional centres and other regional areas
Apple Tree Flat,New South Wales,2850,-32.69836538,149.70780529,Mid-Western,Regional centres and other regional areas
Appleby,New South Wales,2340,-30.96269248,150.82281416,Tamworth,Regional centres and other regional areas
Appletree Flat,New South Wales,2330,-32.51302191,150.85376982,Singleton,Regional centres and other regional areas
Apsley (NSW),New South Wales,2820,-32.62376679,148.94497966,Dubbo,Regional centres and other regional areas
Arable,New South Wales,2630,-36.38258062,148.98069699,Snowy Monaro,Regional centres and other regional areas
Arakoon,New South Wales,2431,-30.92205516,153.06302455,Kempsey,Regional centres and other regional areas
Araluen (NSW),New South Wales,2622,-35.63986212,149.81602082,Queanbeyan-Palerang,Regional centres and other regional areas
Aratula (NSW),New South Wales,2714,-35.77423348,145.28687039,Murray River,Regional centres and other regional areas
Arcadia Vale,New South Wales,2283,-33.06217485,151.57688715,Lake Macquarie,Cities and major regional centres
Ardglen,New South Wales,2338,-31.74699292,150.75534328,Liverpool Plains,Regional centres and other regional areas
Arding,New South Wales,2358,-30.57007705,151.52152169,Uralla,Regional centres and other regional areas
Ardlethan,New South Wales,2665,-34.34356211,146.85453331,Coolamon,Regional centres and other regional areas
Argalong,New South Wales,2720,-35.29423328,148.43684363,Snowy Valleys,Regional centres and other regional areas
Argenton,New South Wales,2284,-32.93503518,151.63064988,Lake Macquarie,Cities and major regional centres
Argents Hill,New South Wales,2449,-30.6091193,152.67151768,Nambucca Valley,Regional centres and other regional areas
Argoon,New South Wales,2707,-34.94042962,145.62168897,Murrumbidgee,Regional centres and other regional areas
Ariah Park,New South Wales,2665,-34.31079893,147.19710501,Temora,Regional centres and other regional areas
Arkell,New South Wales,2795,-33.73576584,149.38597064,Bathurst,Regional centres and other regional areas
Arkstone,New South Wales,2795,-34.09327127,149.63091213,Oberon,Regional centres and other regional areas
Armatree,New South Wales,2828,-31.44796798,148.46345612,Gilgandra,Regional centres and other regional areas
Armidale,New South Wales,2350,-30.50311925,151.66780007,Armidale,Regional centres and other regional areas
Arrawarra,New South Wales,2456,-30.05294596,153.19114882,Coffs Harbour,Regional centres and other regional areas
Arrawarra Headland,New South Wales,2456,-30.06822775,153.19567133,Coffs Harbour,Regional centres and other regional areas
Arthurville,New South Wales,2820,-32.55594101,148.73791873,Dubbo,Regional centres and other regional areas
Arumpo,New South Wales,2715,-33.81282443,142.67410132,Wentworth,Regional centres and other regional areas
Ashby (NSW),New South Wales,2463,-29.44214911,153.18369128,Clarence Valley,Regional centres and other regional areas
Ashby Heights,New South Wales,2463,-29.3958108,153.17465429,Clarence Valley,Regional centres and other regional areas
Ashby Island,New South Wales,2463,-29.42423357,153.20361173,Clarence Valley,Regional centres and other regional areas
Ashford (NSW),New South Wales,2361,-29.31183142,151.16706624,Inverell,Regional centres and other regional areas
Ashley,New South Wales,2400,-29.25011615,149.79768697,Moree Plains,Regional centres and other regional areas
Ashmont,New South Wales,2650,-35.12489428,147.33175994,Wagga Wagga,Regional centres and other regional areas
Ashtonfield,New South Wales,2323,-32.77993015,151.5992247,Maitland,Regional centres and other regional areas
Atholwood,New South Wales,2361,-29.06816257,151.04760291,Inverell,Regional centres and other regional areas
Attunga,New South Wales,2345,-30.91124463,150.81745671,Tamworth,Regional centres and other regional areas
Auburn Vale,New South Wales,2360,-29.83088167,151.03910536,Inverell,Regional centres and other regional areas
Austinmer,New South Wales,2515,-34.30170653,150.92914728,Wollongong,Cities and major regional centres
Austral Eden,New South Wales,2440,-31.02557101,152.91963194,Kempsey,Regional centres and other regional areas
Avisford,New South Wales,2850,-32.74709824,149.47879011,Mid-Western,Regional centres and other regional areas
Avoca (NSW),New South Wales,2577,-34.59118073,150.47213811,Wingecarribee,Regional centres and other regional areas
Avoca Beach,New South Wales,2251,-33.47023904,151.42762601,Central Coast (NSW),Regional centres and other regional areas
Avon (NSW),New South Wales,2574,-34.4254888,150.66868182,Wingecarribee,Cities and major regional centres
Avondale (NSW),New South Wales,2530,-34.52391124,150.74536535,Wollongong,Cities and major regional centres
Avonside,New South Wales,2628,-36.39805463,148.72045898,Snowy Monaro,Regional centres and other regional areas
Awaba,New South Wales,2283,-33.02242835,151.54248823,Lake Macquarie,Cities and major regional centres
Aylmerton,New South Wales,2575,-34.42247632,150.49647037,Wingecarribee,Regional centres and other regional areas
Baan Baa,New South Wales,2390,-30.5723509,149.92906832,Narrabri,Regional centres and other regional areas
Babinda (NSW),New South Wales,2825,-31.92564404,146.50854588,Bogan,Regional centres and other regional areas
Babyl Creek,New South Wales,2470,-28.72233725,152.79292787,Kyogle,Regional centres and other regional areas
Back Creek (Bland - NSW),New South Wales,2671,-33.86454342,147.46054267,Bland,Regional centres and other regional areas
Back Creek (Gwydir - NSW),New South Wales,2390,-30.11225836,150.27558198,Gwydir,Regional centres and other regional areas
Back Creek (Mid-Coast - NSW),New South Wales,2422,-31.96167395,152.05315576,Mid-Coast,Regional centres and other regional areas
Back Creek (Queanbeyan-Palerang Regional - NSW),New South Wales,2622,-35.34329443,149.94354771,Queanbeyan-Palerang,Regional centres and other regional areas
Back Creek (Tenterfield - NSW),New South Wales,2372,-28.96174432,151.72902925,Tenterfield,Regional centres and other regional areas
Back Creek (Tweed - NSW),New South Wales,2484,-28.40915332,153.17017247,Tweed,Regional centres and other regional areas
Back Forest,New South Wales,2535,-34.84050575,150.68114894,Shoalhaven,Cities and major regional centres
Backmede,New South Wales,2470,-28.75690914,153.02576817,Richmond Valley,Regional centres and other regional areas
Backwater,New South Wales,2365,-30.05250098,151.92236635,Armidale,Regional centres and other regional areas
Badja,New South Wales,2630,-36.05909382,149.51710792,Snowy Monaro,Regional centres and other regional areas
Baerami,New South Wales,2333,-32.40160909,150.46036873,Muswellbrook,Regional centres and other regional areas
Baerami Creek,New South Wales,2333,-32.57416337,150.49335075,Muswellbrook,Regional centres and other regional areas
Bagnoo,New South Wales,2446,-31.47533338,152.53301356,Port Macquarie-Hastings,Regional centres and other regional areas
Bago,New South Wales,2446,-31.51173507,152.66715229,Port Macquarie-Hastings,Regional centres and other regional areas
Bagotville,New South Wales,2477,-28.97611374,153.41304615,Ballina,Regional centres and other regional areas
Bakers Creek (Mid-Coast - NSW),New South Wales,2422,-31.97288097,152.10120079,Mid-Coast,Regional centres and other regional areas
Bakers Creek (Nambucca Valley - NSW),New South Wales,2447,-30.8263661,152.7145441,Nambucca Valley,Regional centres and other regional areas
Bakers Creek (Uralla - NSW),New South Wales,2359,-30.32480865,150.99557972,Uralla,Regional centres and other regional areas
Bakers Swamp,New South Wales,2820,-32.77151675,148.93328698,Dubbo,Regional centres and other regional areas
Balaclava (NSW),New South Wales,2575,-34.44149194,150.48267595,Wingecarribee,Regional centres and other regional areas
Balala,New South Wales,2358,-30.62031956,151.29912006,Uralla,Regional centres and other regional areas
Balcolyn,New South Wales,2264,-33.0957024,151.55198021,Lake Macquarie,Cities and major regional centres
Bald Blair,New South Wales,2365,-30.1801996,151.81719947,Armidale,Regional centres and other regional areas
Bald Hills (NSW),New South Wales,2549,-36.91172107,149.84279519,Bega Valley,Regional centres and other regional areas
Bald Nob,New South Wales,2370,-29.67874531,151.9881211,Glen Innes Severn,Regional centres and other regional areas
Bald Ridge,New South Wales,2795,-33.93296962,149.43407905,Oberon,Regional centres and other regional areas
Baldersleigh,New South Wales,2365,-30.27085372,151.42760088,Armidale,Regional centres and other regional areas
Baldry,New South Wales,2867,-32.8881724,148.46770095,Cabonne,Regional centres and other regional areas
Balfours Peak,New South Wales,2403,-29.47019078,150.76445387,Gwydir,Regional centres and other regional areas
Balgownie,New South Wales,2519,-34.38654214,150.87120355,Wollongong,Cities and major regional centres
Balickera,New South Wales,2324,-32.65979081,151.80724266,Port Stephens,Regional centres and other regional areas
Balladoran,New South Wales,2822,-31.89870096,148.5498065,Gilgandra,Regional centres and other regional areas
Ballalaba,New South Wales,2622,-35.61872723,149.6401757,Queanbeyan-Palerang,Regional centres and other regional areas
Balldale,New South Wales,2646,-35.83559338,146.52162585,Federation,Regional centres and other regional areas
Ballengarra,New South Wales,2441,-31.31775733,152.70525705,Port Macquarie-Hastings,Regional centres and other regional areas
Ballimore,New South Wales,2830,-32.19780435,148.88620716,Dubbo,Regional centres and other regional areas
Ballina,New South Wales,2478,-28.83993865,153.55914737,Ballina,Regional centres and other regional areas
Ballyroe,New South Wales,2795,-34.04844956,149.57096365,Oberon,Regional centres and other regional areas
Balmoral (Lake Macquarie - NSW),New South Wales,2283,-33.04578407,151.57902009,Lake Macquarie,Cities and major regional centres
Balranald,New South Wales,2715,-34.33338889,143.41702753,Balranald,Regional centres and other regional areas
Bamarang,New South Wales,2540,-34.90431916,150.51885454,Shoalhaven,Regional centres and other regional areas
Banda Banda,New South Wales,2446,-31.19474363,152.45289284,Port Macquarie-Hastings,Regional centres and other regional areas
Bandon Grove,New South Wales,2420,-32.27066751,151.70149008,Dungog,Regional centres and other regional areas
Bangadang,New South Wales,2729,-35.27328522,147.98480242,Snowy Valleys,Regional centres and other regional areas
Bangalee (NSW),New South Wales,2541,-34.84426734,150.55153426,Shoalhaven,Regional centres and other regional areas
Bangalow,New South Wales,2479,-28.6832752,153.52197112,Byron,Regional centres and other regional areas
Bangheet,New South Wales,2404,-29.83710493,150.41655663,Gwydir,Regional centres and other regional areas
Bango,New South Wales,2582,-34.75680771,148.96696863,Yass Valley,Regional centres and other regional areas
Bannaby,New South Wales,2580,-34.40978939,149.99490492,Upper Lachlan,Regional centres and other regional areas
Bannister (NSW),New South Wales,2580,-34.60635413,149.49127213,Upper Lachlan,Regional centres and other regional areas
Banoon,New South Wales,2347,-30.52594628,150.40836922,Tamworth,Regional centres and other regional areas
Banora Point,New South Wales,2486,-28.22161657,153.5367787,Tweed,Regional centres and other regional areas
Banyabba,New South Wales,2460,-29.3720273,152.93412087,Clarence Valley,Regional centres and other regional areas
Bar Beach,New South Wales,2300,-32.93896282,151.76863174,Newcastle,Cities and major regional centres
Bara,New South Wales,2850,-32.57249148,149.83009165,Mid-Western,Regional centres and other regional areas
Baradine,New South Wales,2396,-30.92910423,149.05828694,Warrumbungle,Regional centres and other regional areas
Barcoongere,New South Wales,2460,-29.90026975,153.20230344,Clarence Valley,Regional centres and other regional areas
Barellan,New South Wales,2665,-34.18294951,146.59566324,Narrandera,Regional centres and other regional areas
Bargo,New South Wales,2574,-34.28405523,150.58706254,Wollondilly,Cities and major regional centres
Barham,New South Wales,2732,-35.60035472,144.21510758,Murray River,Regional centres and other regional areas
Barigan,New South Wales,2850,-32.51870839,149.98111406,Mid-Western,Regional centres and other regional areas
Barkers Vale,New South Wales,2474,-28.53312768,153.11917942,Kyogle,Regional centres and other regional areas
Barmedman,New South Wales,2668,-34.10772773,147.41877987,Bland,Regional centres and other regional areas
Barneys Reef,New South Wales,2852,-32.17729842,149.50421155,Mid-Western,Regional centres and other regional areas
Barnsley,New South Wales,2278,-32.9279068,151.58490692,Lake Macquarie,Cities and major regional centres
Barraba,New South Wales,2347,-30.36048177,150.5495939,Tamworth,Regional centres and other regional areas
Barrack Heights,New South Wales,2528,-34.56305275,150.85450823,Shellharbour,Cities and major regional centres
Barrack Point,New South Wales,2528,-34.56318845,150.86930867,Shellharbour,Cities and major regional centres
Barraganyatti,New South Wales,2441,-30.87627106,152.92537445,Kempsey,Regional centres and other regional areas
Barragga Bay,New South Wales,2546,-36.50418124,150.05200861,Bega Valley,Regional centres and other regional areas
Barratta (NSW),New South Wales,2710,-35.18923523,144.52984157,Edward River,Regional centres and other regional areas
Barren Grounds,New South Wales,2577,-34.69025401,150.72305574,Shoalhaven,Regional centres and other regional areas
Barrengarry,New South Wales,2577,-34.688622,150.52993604,Shoalhaven,Regional centres and other regional areas
Barretts Creek,New South Wales,2460,-29.36404648,152.75079711,Clarence Valley,Regional centres and other regional areas
Barringella,New South Wales,2540,-34.9117445,150.46263232,Shoalhaven,Regional centres and other regional areas
Barrington (NSW),New South Wales,2422,-31.99495468,151.89559446,Mid-Coast,Regional centres and other regional areas
Barrington Tops,New South Wales,2422,-31.95890254,151.52770341,Mid-Coast,Regional centres and other regional areas
Barry (Blayney - NSW),New South Wales,2799,-33.64699875,149.26684857,Blayney,Regional centres and other regional areas
Barry (Tamworth Regional - NSW),New South Wales,2340,-31.59993745,151.28378209,Tamworth,Regional centres and other regional areas
Barwang,New South Wales,2594,-34.44558315,148.47802022,Hilltops,Regional centres and other regional areas
Baryulgil,New South Wales,2460,-29.2187622,152.59858357,Clarence Valley,Regional centres and other regional areas
Basin View,New South Wales,2540,-35.09349509,150.54755447,Shoalhaven,Regional centres and other regional areas
Bassendean (NSW),New South Wales,2365,-30.06155798,151.18618465,Inverell,Regional centres and other regional areas
Batar Creek,New South Wales,2439,-31.67024872,152.67457527,Port Macquarie-Hastings,Regional centres and other regional areas
Bateau Bay,New South Wales,2261,-33.38621047,151.47251766,Central Coast (NSW),Regional centres and other regional areas
Batehaven,New South Wales,2536,-35.73759755,150.19831666,Eurobodalla,Regional centres and other regional areas
Batemans Bay,New South Wales,2536,-35.70610425,150.15728978,Eurobodalla,Regional centres and other regional areas
Bathampton,New South Wales,2795,-33.49369682,149.41364133,Bathurst,Regional centres and other regional areas
Bathurst,New South Wales,2795,-33.41927064,149.57750931,Bathurst,Regional centres and other regional areas
Batlow,New South Wales,2730,-35.54500619,148.14662327,Snowy Valleys,Regional centres and other regional areas
Baw Baw (NSW),New South Wales,2580,-34.71904914,149.63853022,Goulburn Mulwaree,Regional centres and other regional areas
Bawley Point,New South Wales,2539,-35.51161463,150.37909028,Shoalhaven,Regional centres and other regional areas
Baxters Ridge,New South Wales,2422,-31.7073523,151.9042828,Mid-Coast,Regional centres and other regional areas
Bean Creek,New South Wales,2469,-28.58143976,152.58741579,Kyogle,Regional centres and other regional areas
Bearbong,New South Wales,2827,-31.66660903,148.89587439,Gilgandra,Regional centres and other regional areas
Beaumont (NSW),New South Wales,2577,-34.78050018,150.57867971,Shoalhaven,Regional centres and other regional areas
Beckom,New South Wales,2665,-34.35639587,147.00603367,Coolamon,Regional centres and other regional areas
Bective,New South Wales,2340,-30.99636099,150.71143137,Tamworth,Regional centres and other regional areas
Bectric,New South Wales,2665,-34.50335282,147.27111518,Temora,Regional centres and other regional areas
Bedgerabong,New South Wales,2871,-33.33342928,147.6999037,Forbes,Regional centres and other regional areas
Beechwood,New South Wales,2446,-31.44185455,152.66267881,Port Macquarie-Hastings,Regional centres and other regional areas
Beecroft Peninsula,New South Wales,2540,-35.05179072,150.80854935,Shoalhaven,Regional centres and other regional areas
Beelbangera,New South Wales,2680,-34.23128579,146.10461581,Griffith,Regional centres and other regional areas
Beemunnel,New South Wales,2824,-31.67179125,147.84831978,Warren,Regional centres and other regional areas
Bega,New South Wales,2550,-36.68864477,149.84181654,Bega Valley,Regional centres and other regional areas
Beggan Beggan,New South Wales,2587,-34.65553231,148.28512784,Hilltops,Regional centres and other regional areas
Belanglo,New South Wales,2577,-34.5122482,150.22168541,Wingecarribee,Regional centres and other regional areas
Belbora,New South Wales,2422,-31.98412774,152.16919399,Mid-Coast,Regional centres and other regional areas
Belford,New South Wales,2335,-32.66934875,151.28806322,Singleton,Regional centres and other regional areas
Belfrayden,New South Wales,2650,-35.11649802,147.05531455,Wagga Wagga,Regional centres and other regional areas
Belgravia,New South Wales,2800,-33.10748073,149.02988935,Cabonne,Regional centres and other regional areas
Bell (NSW),New South Wales,2786,-33.48765186,150.30260565,Lithgow,Regional centres and other regional areas
Bellambi,New South Wales,2518,-34.36834636,150.91699144,Wollongong,Cities and major regional centres
Bellangry,New South Wales,2446,-31.32797117,152.58185301,Port Macquarie-Hastings,Regional centres and other regional areas
Bellata,New South Wales,2397,-29.93546296,149.75891865,Narrabri,Regional centres and other regional areas
Bellawongarah,New South Wales,2535,-34.75885865,150.61915644,Shoalhaven,Cities and major regional centres
Bellbird,New South Wales,2325,-32.85366489,151.31649882,Cessnock,Regional centres and other regional areas
Bellbird Heights,New South Wales,2325,-32.84843722,151.33071831,Cessnock,Regional centres and other regional areas
Bellbrook,New South Wales,2440,-30.75944706,152.4846153,Kempsey,Regional centres and other regional areas
Bellimbopinni,New South Wales,2440,-31.00583966,152.89883459,Kempsey,Regional centres and other regional areas
Bellingen,New South Wales,2454,-30.45284616,152.88869425,Bellingen,Regional centres and other regional areas
Bellmount Forest,New South Wales,2581,-34.92618151,149.2255273,Yass Valley,Regional centres and other regional areas
Belltrees,New South Wales,2337,-31.96975617,151.12226426,Upper Hunter,Regional centres and other regional areas
Belmont (NSW),New South Wales,2280,-33.03318359,151.6786689,Lake Macquarie,Cities and major regional centres
Belmont North,New South Wales,2280,-33.0170499,151.67225239,Lake Macquarie,Cities and major regional centres
Belmont South,New South Wales,2280,-33.0533448,151.66078008,Lake Macquarie,Cities and major regional centres
Belmore River,New South Wales,2440,-31.09128671,152.96550418,Kempsey,Regional centres and other regional areas
Beloka,New South Wales,2628,-36.54822748,148.71071531,Snowy Monaro,Regional centres and other regional areas
Belowra,New South Wales,2545,-36.10193159,149.68339101,Eurobodalla,Regional centres and other regional areas
Bemboka,New South Wales,2550,-36.6196148,149.56710364,Bega Valley,Regional centres and other regional areas
Ben Bullen,New South Wales,2790,-33.21728305,150.03375824,Lithgow,Regional centres and other regional areas
Ben Lomond (NSW),New South Wales,2365,-30.0094519,151.64969951,Armidale,Regional centres and other regional areas
Benandarah,New South Wales,2536,-35.61007028,150.21550135,Eurobodalla,Regional centres and other regional areas
Bendalong,New South Wales,2539,-35.22198724,150.48064994,Shoalhaven,Regional centres and other regional areas
Bendemeer,New South Wales,2355,-30.80358261,151.17647656,Tamworth,Regional centres and other regional areas
Bendick Murrell,New South Wales,2803,-34.18085362,148.44959237,Hilltops,Regional centres and other regional areas
Bendolba,New South Wales,2420,-32.34995479,151.72932847,Dungog,Regional centres and other regional areas
Bendoura,New South Wales,2622,-35.54086025,149.67976253,Queanbeyan-Palerang,Regional centres and other regional areas
Benerembah,New South Wales,2680,-34.49179393,145.82854268,Carrathool,Regional centres and other regional areas
Bengalla,New South Wales,2333,-32.28653795,150.82165808,Muswellbrook,Regional centres and other regional areas
Bennetts Green,New South Wales,2290,-32.99913594,151.68910903,Lake Macquarie,Cities and major regional centres
Benolong,New South Wales,2818,-32.50841161,148.67000516,Dubbo,Regional centres and other regional areas
Bensville,New South Wales,2251,-33.49950551,151.39198805,Central Coast (NSW),Regional centres and other regional areas
Bentley (NSW),New South Wales,2480,-28.75320652,153.09817493,Lismore,Regional centres and other regional areas
Berambing,New South Wales,2758,-33.53504433,150.44929874,Hawkesbury,Regional centres and other regional areas
Beresfield,New South Wales,2322,-32.8036093,151.64066457,Newcastle,Regional centres and other regional areas
Bergalia,New South Wales,2537,-35.97850847,150.09481686,Eurobodalla,Regional centres and other regional areas
Berkeley,New South Wales,2506,-34.47557286,150.84403809,Wollongong,Cities and major regional centres
Berkeley Vale,New South Wales,2261,-33.32930258,151.42518039,Central Coast (NSW),Regional centres and other regional areas
Berlang,New South Wales,2622,-35.67897891,149.68667775,Queanbeyan-Palerang,Regional centres and other regional areas
Bermagui,New South Wales,2546,-36.43165728,150.03942334,Bega Valley,Regional centres and other regional areas
Berrambool,New South Wales,2548,-36.88037104,149.90978171,Bega Valley,Regional centres and other regional areas
Berrara,New South Wales,2540,-35.20601554,150.55284082,Shoalhaven,Regional centres and other regional areas
Berremangra,New South Wales,2582,-34.80471718,148.48626919,Hilltops,Regional centres and other regional areas
Berrico,New South Wales,2422,-32.08705918,151.79797898,Mid-Coast,Regional centres and other regional areas
Berridale,New South Wales,2628,-36.38342396,148.81990316,Snowy Monaro,Regional centres and other regional areas
Berrigal,New South Wales,2390,-29.96059288,150.11109772,Moree Plains,Regional centres and other regional areas
Berrigan,New South Wales,2712,-35.64569031,145.82769481,Berrigan,Regional centres and other regional areas
Berrima,New South Wales,2577,-34.46377255,150.33233972,Wingecarribee,Regional centres and other regional areas
Berringer Lake,New South Wales,2539,-35.2509662,150.50414491,Shoalhaven,Regional centres and other regional areas
Berry,New South Wales,2535,-34.7923902,150.7266361,Shoalhaven,Cities and major regional centres
Berry Jerry,New South Wales,2701,-34.70681935,147.24652372,Coolamon,Regional centres and other regional areas
Berry Mountain,New South Wales,2535,-34.76630179,150.64985355,Shoalhaven,Cities and major regional centres
Berry Park,New South Wales,2321,-32.74377047,151.65744793,Maitland,Regional centres and other regional areas
Berthong,New South Wales,2594,-34.38898235,148.09557324,Hilltops,Regional centres and other regional areas
Beryl,New South Wales,2852,-32.31685323,149.44991028,Mid-Western,Regional centres and other regional areas
Bethungra,New South Wales,2590,-34.75696003,147.8416331,Junee,Regional centres and other regional areas
Bevendale,New South Wales,2581,-34.5330343,149.08700201,Upper Lachlan,Regional centres and other regional areas
Bewong,New South Wales,2540,-35.07885073,150.53345847,Shoalhaven,Regional centres and other regional areas
Bexhill,New South Wales,2480,-28.75590292,153.35368564,Lismore,Regional centres and other regional areas
Biala,New South Wales,2581,-34.59582281,149.26053522,Upper Lachlan,Regional centres and other regional areas
Bibbenluke,New South Wales,2632,-36.81457399,149.31313462,Snowy Monaro,Regional centres and other regional areas
Biddon,New South Wales,2827,-31.55994855,148.78493784,Gilgandra,Regional centres and other regional areas
Bidgeemia,New South Wales,2642,-35.39434255,146.46169771,Lockhart,Regional centres and other regional areas
Bielsdown Hills,New South Wales,2453,-30.36839837,152.67028286,Bellingen,Regional centres and other regional areas
Big Hill (NSW),New South Wales,2579,-34.53259728,150.00440236,Upper Lachlan,Regional centres and other regional areas
Big Jacks Creek,New South Wales,2339,-31.76500359,150.6090096,Liverpool Plains,Regional centres and other regional areas
Big Ridge,New South Wales,2330,-32.57520171,151.22624396,Singleton,Regional centres and other regional areas
Big Springs,New South Wales,2650,-35.34673456,147.41954941,Wagga Wagga,Regional centres and other regional areas
Bigga,New South Wales,2583,-34.06298921,149.13022271,Upper Lachlan,Regional centres and other regional areas
Bilambil,New South Wales,2486,-28.22637338,153.46705994,Tweed,Regional centres and other regional areas
Bilambil Heights,New South Wales,2486,-28.2098714,153.48444532,Tweed,Regional centres and other regional areas
Bilbul,New South Wales,2680,-34.28165942,146.15918216,Griffith,Regional centres and other regional areas
Billeroy,New South Wales,2829,-30.63013432,148.45437497,Coonamble,Regional centres and other regional areas
Billilingra,New South Wales,2630,-36.01939488,149.11453503,Snowy Monaro,Regional centres and other regional areas
Billimari,New South Wales,2804,-33.67279559,148.61810278,Cowra,Regional centres and other regional areas
Billinudgel,New South Wales,2483,-28.50659581,153.51484545,Byron,Regional centres and other regional areas
Billys Creek,New South Wales,2453,-30.1615008,152.5773161,Clarence Valley,Regional centres and other regional areas
Billywillinga,New South Wales,2795,-33.2840486,149.44045322,Bathurst,Regional centres and other regional areas
Bilpin,New South Wales,2758,-33.44850989,150.54960398,Hawkesbury,Regional centres and other regional areas
Bimberi,New South Wales,2611,-35.57314487,148.70900096,Snowy Valleys,Regional centres and other regional areas
Bimbi,New South Wales,2810,-33.99420553,147.94386098,Weddin,Regional centres and other regional areas
Bimbimbie,New South Wales,2536,-35.85192483,150.11511783,Eurobodalla,Regional centres and other regional areas
Binalong,New South Wales,2584,-34.67215855,148.6609196,Yass Valley,Regional centres and other regional areas
Binda,New South Wales,2583,-34.30980651,149.32282198,Upper Lachlan,Regional centres and other regional areas
Bindera,New South Wales,2422,-32.03034212,151.82522612,Mid-Coast,Regional centres and other regional areas
Bingara,New South Wales,2404,-29.84754787,150.57123952,Gwydir,Regional centres and other regional areas
Bingeebeebra Creek,New South Wales,2469,-28.80761211,152.77837129,Kyogle,Regional centres and other regional areas
Bingie,New South Wales,2537,-36.01185316,150.1436694,Eurobodalla,Regional centres and other regional areas
Bingleburra,New South Wales,2311,-32.37693517,151.61816144,Dungog,Regional centres and other regional areas
Biniguy,New South Wales,2399,-29.57699047,150.13921153,Moree Plains,Regional centres and other regional areas
Binjura,New South Wales,2630,-36.17870474,149.10470502,Snowy Monaro,Regional centres and other regional areas
Binna Burra (NSW),New South Wales,2479,-28.71073962,153.49347018,Byron,Regional centres and other regional areas
Binnaway,New South Wales,2395,-31.54022406,149.45712182,Warrumbungle,Regional centres and other regional areas
Binya,New South Wales,2665,-34.14319589,146.33941108,Carrathool,Regional centres and other regional areas
Birdwood (NSW),New South Wales,2446,-31.36176484,152.32993412,Port Macquarie-Hastings,Regional centres and other regional areas
Birganbigil,New South Wales,2710,-35.51833891,145.18462673,Edward River,Regional centres and other regional areas
Birmingham Gardens,New South Wales,2287,-32.89367233,151.69009243,Newcastle,Cities and major regional centres
Birriwa,New South Wales,2844,-32.12363028,149.4789801,Mid-Western,Regional centres and other regional areas
Bishops Bridge,New South Wales,2326,-32.74707958,151.47019931,Maitland,Regional centres and other regional areas
Bithramere,New South Wales,2340,-31.13568824,150.78110133,Tamworth,Regional centres and other regional areas
Black Creek (Port Macquarie-Hastings - NSW),New South Wales,2439,-31.58585941,152.6386434,Port Macquarie-Hastings,Regional centres and other regional areas
Black Creek (Snowy Valleys - NSW),New South Wales,2729,-35.32866481,148.03351095,Snowy Valleys,Regional centres and other regional areas
Black Head,New South Wales,2430,-32.07168718,152.53493469,Mid-Coast,Regional centres and other regional areas
Black Hill (NSW),New South Wales,2322,-32.82107789,151.60769394,Cessnock,Regional centres and other regional areas
Black Hollow,New South Wales,2828,-31.12009321,148.87096667,Coonamble,Regional centres and other regional areas
Black Mountain (NSW),New South Wales,2365,-30.33093198,151.68144485,Armidale,Regional centres and other regional areas
Black Range (NSW),New South Wales,2550,-36.73476716,149.84439365,Bega Valley,Regional centres and other regional areas
Black Springs (NSW),New South Wales,2787,-33.85710909,149.71857838,Oberon,Regional centres and other regional areas
Blackalls Park,New South Wales,2283,-32.99892748,151.57960896,Lake Macquarie,Cities and major regional centres
Blackbutt (NSW),New South Wales,2529,-34.57148765,150.83232865,Shellharbour,Cities and major regional centres
Blackheath,New South Wales,2785,-33.63843954,150.27855183,Blue Mountains,Regional centres and other regional areas
Blackmans Flat,New South Wales,2790,-33.33798577,150.06493263,Lithgow,Regional centres and other regional areas
Blackmans Point,New South Wales,2444,-31.38957319,152.83100744,Port Macquarie-Hastings,Regional centres and other regional areas
Blacksmiths,New South Wales,2281,-33.07464442,151.65346661,Lake Macquarie,Cities and major regional centres
Blackville,New South Wales,2343,-31.62995305,150.25280631,Liverpool Plains,Regional centres and other regional areas
Blackwall (NSW),New South Wales,2256,-33.50549474,151.33322431,Central Coast (NSW),Regional centres and other regional areas
Blakebrook,New South Wales,2480,-28.76770693,153.23219564,Lismore,Regional centres and other regional areas
Blakney Creek,New South Wales,2581,-34.62163038,149.05894615,Upper Lachlan,Regional centres and other regional areas
Bland,New South Wales,2721,-34.01458938,147.63401613,Bland,Regional centres and other regional areas
Blandford,New South Wales,2338,-31.78124236,150.91986541,Upper Hunter,Regional centres and other regional areas
Blaxland (NSW),New South Wales,2774,-33.74394057,150.61673937,Blue Mountains,Regional centres and other regional areas
Blaxlands Creek,New South Wales,2460,-29.8830787,152.79807069,Clarence Valley,Regional centres and other regional areas
Blaxlands Ridge,New South Wales,2758,-33.47378936,150.79685066,Hawkesbury,Regional centres and other regional areas
Blayney,New South Wales,2799,-33.54312594,149.25719131,Blayney,Regional centres and other regional areas
Bligh Park,New South Wales,2756,-33.63862132,150.7997407,Hawkesbury,Regional centres and other regional areas
Blighty,New South Wales,2713,-35.59935628,145.31105362,Edward River,Regional centres and other regional areas
Blowering,New South Wales,2720,-35.50275091,148.25818122,Snowy Valleys,Regional centres and other regional areas
Blue Bay,New South Wales,2261,-33.3541172,151.5002442,Central Coast (NSW),Regional centres and other regional areas
Blue Haven,New South Wales,2262,-33.21104353,151.50352035,Central Coast (NSW),Regional centres and other regional areas
Blue Knob,New South Wales,2480,-28.55013181,153.19389934,Lismore,Regional centres and other regional areas
Blue Nobby,New South Wales,2408,-29.09134459,150.64591203,Gwydir,Regional centres and other regional areas
Blue Vale,New South Wales,2380,-30.83545129,150.22046704,Gunnedah,Regional centres and other regional areas
Blueys Beach,New South Wales,2428,-32.35028078,152.52991682,Mid-Coast,Regional centres and other regional areas
Boambee,New South Wales,2450,-30.33458134,153.05545898,Coffs Harbour,Regional centres and other regional areas
Boambee East,New South Wales,2452,-30.34539171,153.07757281,Coffs Harbour,Regional centres and other regional areas
Boambolo,New South Wales,2582,-34.97602393,148.89355752,Yass Valley,Regional centres and other regional areas
Boat Harbour (Lismore - NSW),New South Wales,2480,-28.78256143,153.35535797,Lismore,Regional centres and other regional areas
Boat Harbour (Port Stephens - NSW),New South Wales,2316,-32.78434806,152.11021677,Port Stephens,Regional centres and other regional areas
Bobadah,New South Wales,2877,-32.27189941,146.68393973,Bogan,Regional centres and other regional areas
Bobin,New South Wales,2429,-31.69828115,152.28317962,Mid-Coast,Regional centres and other regional areas
Bobs Creek,New South Wales,2439,-31.59168237,152.75412924,Port Macquarie-Hastings,Regional centres and other regional areas
Bobs Farm,New South Wales,2316,-32.77796559,152.00220438,Port Stephens,Regional centres and other regional areas
Bobundara,New South Wales,2630,-36.46000396,148.97703767,Snowy Monaro,Regional centres and other regional areas
Boco,New South Wales,2631,-36.60718385,149.15589764,Snowy Monaro,Regional centres and other regional areas
Bocoble,New South Wales,2850,-32.80090969,149.73084195,Mid-Western,Regional centres and other regional areas
Bocobra,New South Wales,2865,-33.1017092,148.53619286,Cabonne,Regional centres and other regional areas
Bodalla,New South Wales,2545,-36.09333382,150.00937004,Eurobodalla,Regional centres and other regional areas
Bodangora,New South Wales,2820,-32.44213758,149.03358189,Dubbo,Regional centres and other regional areas
Boeill Creek,New South Wales,2739,-34.15383621,142.10579734,Wentworth,Regional centres and other regional areas
Bogan,New South Wales,2826,-32.02593797,147.491544,Warren,Regional centres and other regional areas
Bogan Gate,New South Wales,2876,-33.09509861,147.77093144,Parkes,Regional centres and other regional areas
Bogangar,New South Wales,2488,-28.33107298,153.55981173,Tweed,Regional centres and other regional areas
Bogee,New South Wales,2849,-32.99434282,150.10080864,Lithgow,Regional centres and other regional areas
Boggabilla,New South Wales,2409,-28.7027011,150.18467991,Moree Plains,Regional centres and other regional areas
Boggabri,New South Wales,2382,-30.71898063,150.03657598,Narrabri,Regional centres and other regional areas
Bogong Peaks Wilderness,New South Wales,2720,-35.52308623,148.38382325,Snowy Valleys,Regional centres and other regional areas
Bohena Creek,New South Wales,2390,-30.40770346,149.63227894,Narrabri,Regional centres and other regional areas
Bohnock,New South Wales,2430,-31.94605403,152.56512123,Mid-Coast,Regional centres and other regional areas
Bolaro,New South Wales,2629,-35.92224793,148.84668878,Snowy Monaro,Regional centres and other regional areas
Bolivia,New South Wales,2372,-29.28622102,151.90931329,Tenterfield,Regional centres and other regional areas
Bolong,New South Wales,2540,-34.83962837,150.64547434,Shoalhaven,Regional centres and other regional areas
Bolton Point,New South Wales,2283,-32.99686183,151.61128107,Lake Macquarie,Cities and major regional centres
Bolwarra (NSW),New South Wales,2320,-32.71143124,151.57483978,Maitland,Regional centres and other regional areas
Bolwarra Heights,New South Wales,2320,-32.69058489,151.58565529,Maitland,Regional centres and other regional areas
Bom Bom,New South Wales,2460,-29.77586453,152.9659046,Clarence Valley,Regional centres and other regional areas
Bomaderry,New South Wales,2541,-34.84668165,150.6036866,Shoalhaven,Regional centres and other regional areas
Bombah Point,New South Wales,2423,-32.50441827,152.27254099,Mid-Coast,Regional centres and other regional areas
Bombala,New South Wales,2632,-36.88599798,149.24440814,Snowy Monaro,Regional centres and other regional areas
Bombay,New South Wales,2622,-35.43373609,149.65468737,Queanbeyan-Palerang,Regional centres and other regional areas
Bombira,New South Wales,2850,-32.57180067,149.60524223,Mid-Western,Regional centres and other regional areas
Bombo,New South Wales,2533,-34.65368051,150.85214087,Kiama,Cities and major regional centres
Bombowlee,New South Wales,2720,-35.26237336,148.24465398,Snowy Valleys,Regional centres and other regional areas
Bombowlee Creek,New South Wales,2720,-35.27361889,148.31738622,Snowy Valleys,Regional centres and other regional areas
Bomen,New South Wales,2650,-35.06167408,147.43335469,Wagga Wagga,Regional centres and other regional areas
Bonalbo,New South Wales,2469,-28.71916236,152.62502544,Kyogle,Regional centres and other regional areas
Bondi Forest,New South Wales,2632,-37.15332734,149.21356211,Snowy Monaro,Regional centres and other regional areas
Bonnells Bay,New South Wales,2264,-33.11181166,151.52379808,Lake Macquarie,Cities and major regional centres
Bonny Hills,New South Wales,2445,-31.58546929,152.81833038,Port Macquarie-Hastings,Regional centres and other regional areas
Bonshaw (NSW),New South Wales,2361,-29.05092169,151.22380271,Inverell,Regional centres and other regional areas
Bonville,New South Wales,2450,-30.37486972,153.01710157,Coffs Harbour,Regional centres and other regional areas
Booerie Creek,New South Wales,2480,-28.78607763,153.25316993,Lismore,Regional centres and other regional areas
Book Book,New South Wales,2650,-35.33354755,147.54536138,Wagga Wagga,Regional centres and other regional areas
Booker Bay,New South Wales,2257,-33.51381334,151.34585184,Central Coast (NSW),Regional centres and other regional areas
Bookham,New South Wales,2582,-34.84364629,148.62520806,Yass Valley,Regional centres and other regional areas
Bookookoorara,New South Wales,2372,-28.78678397,152.05357729,Tenterfield,Regional centres and other regional areas
Bookram,New South Wales,2460,-29.73523874,153.21255924,Clarence Valley,Regional centres and other regional areas
Boolambayte,New South Wales,2423,-32.39477296,152.27300837,Mid-Coast,Regional centres and other regional areas
Boolaroo,New South Wales,2284,-32.94779424,151.62767864,Lake Macquarie,Cities and major regional centres
Boolcarroll,New South Wales,2388,-30.04775807,149.43178777,Narrabri,Regional centres and other regional areas
Booligal,New South Wales,2711,-33.71322847,144.74478576,Hay,Regional centres and other regional areas
Boolijah,New South Wales,2540,-35.05752528,150.32891443,Shoalhaven,Regional centres and other regional areas
Boomanoomana,New South Wales,2712,-35.89125997,145.84252357,Berrigan,Regional centres and other regional areas
Boomerang Beach,New South Wales,2428,-32.33926816,152.53468885,Mid-Coast,Regional centres and other regional areas
Boomey,New South Wales,2866,-32.98000354,148.96425799,Cabonne,Regional centres and other regional areas
Boomi,New South Wales,2405,-28.70083399,149.63090904,Moree Plains,Regional centres and other regional areas
Boomi Creek,New South Wales,2476,-28.4845264,152.59897118,Kyogle,Regional centres and other regional areas
Boona Mount,New South Wales,2877,-32.61705975,147.25962108,Lachlan,Regional centres and other regional areas
Boonal,New South Wales,2409,-28.76069158,150.55154014,Gwydir,Regional centres and other regional areas
Boonoo Boonoo,New South Wales,2372,-28.89159297,152.09943321,Tenterfield,Regional centres and other regional areas
Boorabee Park,New South Wales,2480,-28.68474926,153.05677588,Kyogle,Regional centres and other regional areas
Booragul,New South Wales,2284,-32.97491262,151.60986486,Lake Macquarie,Cities and major regional centres
Booral (NSW),New South Wales,2425,-32.4725909,151.97517428,Mid-Coast,Regional centres and other regional areas
Boorga,New South Wales,2652,-34.01992641,146.0087868,Carrathool,Regional centres and other regional areas
Boorganna,New South Wales,2429,-31.62076141,152.37520226,Port Macquarie-Hastings,Regional centres and other regional areas
Boorolong,New South Wales,2350,-30.34574744,151.45707644,Armidale,Regional centres and other regional areas
Boorook,New South Wales,2372,-28.7987766,152.2772502,Tenterfield,Regional centres and other regional areas
Boorooma,New South Wales,2650,-35.07098652,147.36670559,Wagga Wagga,Regional centres and other regional areas
Booroorban,New South Wales,2710,-34.85969068,144.79268889,Edward River,Regional centres and other regional areas
Boorowa,New South Wales,2586,-34.39577241,148.73494422,Hilltops,Regional centres and other regional areas
Bootawa,New South Wales,2430,-31.92444019,152.35898791,Mid-Coast,Regional centres and other regional areas
Booti Booti,New South Wales,2428,-32.31670689,152.52239945,Mid-Coast,Regional centres and other regional areas
Booyong,New South Wales,2480,-28.74739272,153.44807781,Lismore,Regional centres and other regional areas
Bora Ridge,New South Wales,2471,-29.05872761,153.20402822,Richmond Valley,Regional centres and other regional areas
Borah Creek,New South Wales,2346,-30.60225374,150.52064366,Tamworth,Regional centres and other regional areas
Borambola,New South Wales,2650,-35.15353308,147.68664373,Wagga Wagga,Regional centres and other regional areas
Border Ranges,New South Wales,2474,-28.39506246,153.06957678,Kyogle,Regional centres and other regional areas
Boree,New South Wales,2800,-33.25175174,148.84467197,Cabonne,Regional centres and other regional areas
Boree Creek,New South Wales,2652,-35.07795877,146.53747504,Federation,Regional centres and other regional areas
Borenore,New South Wales,2800,-33.23360166,148.96030157,Cabonne,Regional centres and other regional areas
Boro,New South Wales,2622,-35.20774851,149.70166084,Queanbeyan-Palerang,Regional centres and other regional areas
Bostobrick,New South Wales,2453,-30.27933046,152.60194823,Bellingen,Regional centres and other regional areas
Botobolar,New South Wales,2850,-32.52420147,149.80484713,Mid-Western,Regional centres and other regional areas
Bottle Creek,New South Wales,2469,-28.78832953,152.65225866,Kyogle,Regional centres and other regional areas
Bouddi,New South Wales,2257,-33.52098873,151.40373847,Central Coast (NSW),Regional centres and other regional areas
Bourbah,New South Wales,2828,-31.23113609,148.16601609,Coonamble,Regional centres and other regional areas
Bourke,New South Wales,2840,-30.20724183,146.04221168,Bourke,Regional centres and other regional areas
Bourkelands,New South Wales,2650,-35.15591325,147.34705706,Wagga Wagga,Regional centres and other regional areas
Bournda,New South Wales,2548,-36.82463405,149.88941624,Bega Valley,Regional centres and other regional areas
Bournewood,New South Wales,2868,-32.74976259,148.76291579,Dubbo,Regional centres and other regional areas
Bowan Park,New South Wales,2864,-33.31885815,148.84045208,Cabonne,Regional centres and other regional areas
Bowen Mountain,New South Wales,2753,-33.5776063,150.62099307,Hawkesbury,Regional centres and other regional areas
Bowenfels,New South Wales,2790,-33.47685066,150.10681074,Lithgow,Regional centres and other regional areas
Bowling Alley Point,New South Wales,2340,-31.37743297,151.14005225,Tamworth,Regional centres and other regional areas
Bowman,New South Wales,2422,-31.93055236,151.81829401,Mid-Coast,Regional centres and other regional areas
Bowman Farm,New South Wales,2422,-31.91140777,151.93331369,Mid-Coast,Regional centres and other regional areas
Bowmans Creek,New South Wales,2330,-32.2584821,151.12781454,Muswellbrook,Regional centres and other regional areas
Bowna,New South Wales,2644,-35.97622673,147.14892983,Greater Hume,Regional centres and other regional areas
Bowning,New South Wales,2582,-34.74576948,148.80129686,Yass Valley,Regional centres and other regional areas
Bowral,New South Wales,2576,-34.4810866,150.43001546,Wingecarribee,Regional centres and other regional areas
Bowraville,New South Wales,2449,-30.6340912,152.86380264,Nambucca Valley,Regional centres and other regional areas
Box Head,New South Wales,2257,-33.5357302,151.34745492,Central Coast (NSW),Regional centres and other regional areas
Boxers Creek,New South Wales,2580,-34.76140416,149.83899543,Goulburn Mulwaree,Regional centres and other regional areas
Boydtown,New South Wales,2551,-37.10710061,149.87331434,Bega Valley,Regional centres and other regional areas
Braefield,New South Wales,2339,-31.57359259,150.70143624,Liverpool Plains,Regional centres and other regional areas
Braemar,New South Wales,2575,-34.42803084,150.48316346,Wingecarribee,Regional centres and other regional areas
Braemar Bay,New South Wales,2628,-36.09859913,148.67406485,Snowy Monaro,Regional centres and other regional areas
Braidwood,New South Wales,2622,-35.43481149,149.80288909,Queanbeyan-Palerang,Regional centres and other regional areas
Brandy Hill,New South Wales,2324,-32.69623558,151.69039988,Port Stephens,Regional centres and other regional areas
Branxton,New South Wales,2335,-32.63331483,151.35650003,Singleton,Regional centres and other regional areas
Braunstone,New South Wales,2460,-29.81824718,152.97299769,Clarence Valley,Regional centres and other regional areas
Brawboy,New South Wales,2337,-31.95210668,150.62459604,Upper Hunter,Regional centres and other regional areas
Bray Park (NSW),New South Wales,2484,-28.34134456,153.37606024,Tweed,Regional centres and other regional areas
Brays Creek,New South Wales,2484,-28.41262953,153.19682133,Tweed,Regional centres and other regional areas
Brayton,New South Wales,2579,-34.63034057,149.96958725,Goulburn Mulwaree,Regional centres and other regional areas
Breadalbane (NSW),New South Wales,2581,-34.7983866,149.44752443,Upper Lachlan,Regional centres and other regional areas
Breakfast Creek,New South Wales,2849,-32.67227097,149.97793018,Mid-Western,Regional centres and other regional areas
Bream Beach,New South Wales,2540,-35.10902271,150.66127643,Shoalhaven,Regional centres and other regional areas
Bredbo,New South Wales,2626,-35.93425133,149.11886095,Snowy Monaro,Regional centres and other regional areas
Breelong,New South Wales,2827,-31.81158049,148.794889,Gilgandra,Regional centres and other regional areas
Breeza,New South Wales,2381,-31.26335813,150.44991912,Gunnedah,Regional centres and other regional areas
Bretti,New South Wales,2422,-31.7674478,151.8934356,Mid-Coast,Regional centres and other regional areas
Brewarrina,New South Wales,2839,-29.99661168,146.88954397,Brewarrina,Regional centres and other regional areas
Brewongle,New South Wales,2795,-33.4808278,149.69051071,Bathurst,Regional centres and other regional areas
Briarbrook,New South Wales,2365,-30.16728054,151.35991306,Armidale,Regional centres and other regional areas
Bribbaree,New South Wales,2594,-34.11365014,147.89648651,Weddin,Regional centres and other regional areas
Bridgman,New South Wales,2330,-32.460313,151.18561781,Singleton,Regional centres and other regional areas
Brierfield,New South Wales,2454,-30.51564767,152.9172566,Bellingen,Regional centres and other regional areas
Brightwaters,New South Wales,2264,-33.11140835,151.54557645,Lake Macquarie,Cities and major regional centres
Bril Bril,New South Wales,2441,-31.27860675,152.55769443,Port Macquarie-Hastings,Regional centres and other regional areas
Brimbin,New South Wales,2430,-31.8506196,152.47230864,Mid-Coast,Regional centres and other regional areas
Brindabella,New South Wales,2611,-35.35995802,148.66473783,Snowy Valleys,Regional centres and other regional areas
Brinerville,New South Wales,2454,-30.4679252,152.49540778,Bellingen,Regional centres and other regional areas
Brisbane Grove,New South Wales,2580,-34.79512433,149.71870176,Goulburn Mulwaree,Regional centres and other regional areas
Broadmeadow,New South Wales,2292,-32.92605191,151.73326469,Newcastle,Cities and major regional centres
Broadwater (Bega Valley - NSW),New South Wales,2549,-36.97321453,149.8934984,Bega Valley,Regional centres and other regional areas
Broadwater (Richmond Valley - NSW),New South Wales,2472,-29.03505275,153.42611992,Richmond Valley,Regional centres and other regional areas
Broadway,New South Wales,2581,-34.70904622,149.08181752,Upper Lachlan,Regional centres and other regional areas
Brobenah,New South Wales,2705,-34.3621325,146.44989867,Narrandera,Regional centres and other regional areas
Brocklehurst,New South Wales,2830,-32.13801661,148.61170451,Dubbo,Regional centres and other regional areas
Brocklesby,New South Wales,2642,-35.81259836,146.66434982,Greater Hume,Regional centres and other regional areas
Brockley,New South Wales,2365,-30.26185881,151.85718129,Armidale,Regional centres and other regional areas
Brodies Plains,New South Wales,2360,-29.80939462,151.1981573,Inverell,Regional centres and other regional areas
Brogans Creek,New South Wales,2848,-32.99097121,149.97829957,Mid-Western,Regional centres and other regional areas
Brogers Creek,New South Wales,2535,-34.70188215,150.68953789,Shoalhaven,Cities and major regional centres
Brogo,New South Wales,2550,-36.47664833,149.69405058,Bega Valley,Regional centres and other regional areas
Broke (NSW),New South Wales,2330,-32.77583162,151.09251112,Singleton,Regional centres and other regional areas
Broken Head,New South Wales,2481,-28.72938983,153.59180505,Byron,Regional centres and other regional areas
Broken Hill,New South Wales,2880,-32.32125175,141.55150046,Unincorporated NSW,Regional centres and other regional areas
Brombin,New South Wales,2446,-31.45703617,152.63283024,Port Macquarie-Hastings,Regional centres and other regional areas
Brookdale (NSW),New South Wales,2656,-35.12037986,147.01281534,Wagga Wagga,Regional centres and other regional areas
Brookfield (NSW),New South Wales,2420,-32.51761588,151.75962491,Dungog,Regional centres and other regional areas
Brooklana,New South Wales,2450,-30.29276003,152.89130627,Coffs Harbour,Regional centres and other regional areas
Brooklet,New South Wales,2479,-28.7404665,153.50417531,Ballina,Regional centres and other regional areas
Brookong,New South Wales,2656,-35.30232347,146.58487696,Lockhart,Regional centres and other regional areas
Brooman,New South Wales,2538,-35.49006047,150.26384162,Shoalhaven,Regional centres and other regional areas
Brooms Head,New South Wales,2463,-29.62339631,153.28910501,Clarence Valley,Regional centres and other regional areas
Broughams Gate,New South Wales,2880,-30.88845331,141.25066106,Unincorporated NSW,Regional centres and other regional areas
Broughton (NSW),New South Wales,2535,-34.75679082,150.73027536,Shoalhaven,Cities and major regional centres
Broughton Vale,New South Wales,2535,-34.73751427,150.70879259,Shoalhaven,Cities and major regional centres
Broughton Village,New South Wales,2534,-34.74312275,150.75188427,Kiama,Cities and major regional centres
Broulee,New South Wales,2537,-35.85299848,150.15376692,Eurobodalla,Regional centres and other regional areas
Browns Creek,New South Wales,2799,-33.53858575,149.14970107,Blayney,Regional centres and other regional areas
Browns Mountain,New South Wales,2540,-34.79340067,150.5311299,Shoalhaven,Regional centres and other regional areas
Brownsville,New South Wales,2530,-34.48281202,150.81114205,Wollongong,Cities and major regional centres
Brucedale,New South Wales,2650,-35.00852433,147.42909554,Wagga Wagga,Regional centres and other regional areas
Bruie Plains,New South Wales,2875,-32.82122114,147.87740572,Parkes,Regional centres and other regional areas
Bruinbun,New South Wales,2795,-33.11053312,149.48773157,Bathurst,Regional centres and other regional areas
Brumby Plains,New South Wales,2476,-28.46323772,152.65537205,Kyogle,Regional centres and other regional areas
Brundee,New South Wales,2540,-34.89238734,150.65769857,Shoalhaven,Regional centres and other regional areas
Brungle,New South Wales,2722,-35.15337576,148.2291293,Snowy Valleys,Regional centres and other regional areas
Brungle Creek,New South Wales,2722,-35.15662052,148.29187134,Snowy Valleys,Regional centres and other regional areas
Brunkerville,New South Wales,2323,-32.95346202,151.48676769,Cessnock,Regional centres and other regional areas
Brunswick Heads,New South Wales,2483,-28.5557639,153.54349083,Byron,Regional centres and other regional areas
Brushgrove,New South Wales,2460,-29.5615416,153.08816148,Clarence Valley,Regional centres and other regional areas
Brushy Creek,New South Wales,2365,-30.15994727,151.5192806,Armidale,Regional centres and other regional areas
Buangla,New South Wales,2540,-34.86715778,150.39636744,Shoalhaven,Regional centres and other regional areas
Bucca (NSW),New South Wales,2450,-30.1573644,153.09578439,Coffs Harbour,Regional centres and other regional areas
Bucca Wauka,New South Wales,2429,-32.10255144,152.15042917,Mid-Coast,Regional centres and other regional areas
Buccarumbi,New South Wales,2460,-29.81605199,152.6084513,Clarence Valley,Regional centres and other regional areas
Buchanan (NSW),New South Wales,2323,-32.82498333,151.53234714,Cessnock,Regional centres and other regional areas
Buckajo,New South Wales,2550,-36.69278126,149.76069644,Bega Valley,Regional centres and other regional areas
Buckaroo,New South Wales,2850,-32.55935882,149.66403381,Mid-Western,Regional centres and other regional areas
Buckenbowra,New South Wales,2536,-35.67039173,149.98647234,Eurobodalla,Regional centres and other regional areas
Buckenderra,New South Wales,2630,-36.16171382,148.7198424,Snowy Monaro,Regional centres and other regional areas
Buckendoon,New South Wales,2472,-29.03337655,153.34567298,Lismore,Regional centres and other regional areas
Bucketty,New South Wales,2250,-33.10542909,151.12576728,Hawkesbury,Regional centres and other regional areas
Buckra Bendinni,New South Wales,2449,-30.65205157,152.69817367,Nambucca Valley,Regional centres and other regional areas
Budawang,New South Wales,2622,-35.47387627,149.99147916,Queanbeyan-Palerang,Regional centres and other regional areas
Buddabadah,New South Wales,2825,-31.95098405,147.16271576,Bogan,Regional centres and other regional areas
Budden,New South Wales,2849,-32.51322546,150.06372642,Mid-Western,Regional centres and other regional areas
Budderoo,New South Wales,2535,-34.67353145,150.66541989,Kiama,Cities and major regional centres
Buddong,New South Wales,2720,-35.65883507,148.23218298,Snowy Valleys,Regional centres and other regional areas
Budgee Budgee (NSW),New South Wales,2850,-32.5176747,149.66446126,Mid-Western,Regional centres and other regional areas
Budgewoi,New South Wales,2262,-33.23662573,151.56903394,Central Coast (NSW),Regional centres and other regional areas
Budgewoi Peninsula,New South Wales,2262,-33.21569033,151.58608443,Central Coast (NSW),Regional centres and other regional areas
Budgong,New South Wales,2577,-34.81030818,150.46311843,Shoalhaven,Regional centres and other regional areas
Buff Point,New South Wales,2262,-33.22868728,151.53472258,Central Coast (NSW),Regional centres and other regional areas
Bugaldie,New South Wales,2357,-31.16066059,149.13471632,Warrumbungle,Regional centres and other regional areas
Bukalong,New South Wales,2632,-36.80140857,149.21114576,Snowy Monaro,Regional centres and other regional areas
Bukkulla,New South Wales,2360,-29.51257254,151.11234046,Inverell,Regional centres and other regional areas
Bulahdelah,New South Wales,2423,-32.38423902,152.17884116,Mid-Coast,Regional centres and other regional areas
Bulee,New South Wales,2622,-35.00947271,150.1309618,Shoalhaven,Regional centres and other regional areas
Bulga (NSW),New South Wales,2330,-32.63836161,150.98285352,Singleton,Regional centres and other regional areas
Bulga Forest,New South Wales,2429,-31.58376464,152.18756295,Mid-Coast,Regional centres and other regional areas
Bulgary,New South Wales,2650,-35.01797798,146.95279608,Wagga Wagga,Regional centres and other regional areas
Bulla (NSW),New South Wales,2835,-32.05272706,144.44019068,Cobar,Regional centres and other regional areas
Bulla Creek,New South Wales,2594,-34.10789217,148.26136183,Hilltops,Regional centres and other regional areas
Bullaburra,New South Wales,2784,-33.72920951,150.41766764,Blue Mountains,Regional centres and other regional areas
Bullagreen,New South Wales,2824,-31.33320994,148.03286447,Warren,Regional centres and other regional areas
Bullarah,New South Wales,2400,-29.41474602,149.13565265,Moree Plains,Regional centres and other regional areas
Bullatale,New South Wales,2710,-35.73850701,145.08065283,Murray River,Regional centres and other regional areas
Bullawa Creek,New South Wales,2390,-30.25911367,150.03266417,Narrabri,Regional centres and other regional areas
Bulldog,New South Wales,2469,-29.03552435,152.49515748,Clarence Valley,Regional centres and other regional areas
Bulli,New South Wales,2516,-34.32743893,150.90218006,Wollongong,Cities and major regional centres
Bulliac,New South Wales,2422,-31.914328,152.02023159,Mid-Coast,Regional centres and other regional areas
Bullio,New South Wales,2575,-34.32817194,150.14440158,Wingecarribee,Regional centres and other regional areas
Bulyeroi,New South Wales,2387,-29.80005224,149.14280826,Narrabri,Regional centres and other regional areas
Bumbaldry,New South Wales,2794,-33.87838211,148.41416083,Weddin,Regional centres and other regional areas
Bumbalong,New South Wales,2626,-35.83193331,149.11009726,Snowy Monaro,Regional centres and other regional areas
Bundabah,New South Wales,2324,-32.66412369,152.07043347,Mid-Coast,Regional centres and other regional areas
Bundagen,New South Wales,2454,-30.41316875,153.05836001,Coffs Harbour,Regional centres and other regional areas
Bundanoon (NSW),New South Wales,2578,-34.66442218,150.28377104,Wingecarribee,Regional centres and other regional areas
Bundarra,New South Wales,2359,-30.1240844,150.99949965,Uralla,Regional centres and other regional areas
Bundella,New South Wales,2343,-31.63293685,149.98260821,Liverpool Plains,Regional centres and other regional areas
Bundemar,New South Wales,2823,-31.75472209,148.14769361,Warren,Regional centres and other regional areas
Bundewallah,New South Wales,2535,-34.75087953,150.66579548,Shoalhaven,Cities and major regional centres
Bundook,New South Wales,2422,-31.89163366,152.0940444,Mid-Coast,Regional centres and other regional areas
Bundure,New South Wales,2716,-35.14232288,145.89409343,Murrumbidgee,Regional centres and other regional areas
Bungaba,New South Wales,2852,-32.15917553,149.67946844,Mid-Western,Regional centres and other regional areas
Bungabbee,New South Wales,2480,-28.76817423,153.13585774,Lismore,Regional centres and other regional areas
Bungalora,New South Wales,2486,-28.24696999,153.47396066,Tweed,Regional centres and other regional areas
Bungarby,New South Wales,2630,-36.68931939,149.02633979,Snowy Monaro,Regional centres and other regional areas
Bungawalbin,New South Wales,2469,-29.10743643,153.19942988,Richmond Valley,Regional centres and other regional areas
Bungendore,New South Wales,2621,-35.29402711,149.48032894,Queanbeyan-Palerang,Regional centres and other regional areas
Bungonia,New South Wales,2580,-34.88036627,149.9550543,Goulburn Mulwaree,Regional centres and other regional areas
Bungowannah,New South Wales,2640,-36.0034255,146.77323144,Greater Hume,Regional centres and other regional areas
Bungwahl,New South Wales,2423,-32.36922085,152.41747142,Mid-Coast,Regional centres and other regional areas
Bunnaloo,New South Wales,2731,-35.78899719,144.54918767,Murray River,Regional centres and other regional areas
Bunnan,New South Wales,2337,-32.06094179,150.57908534,Upper Hunter,Regional centres and other regional areas
Bunyah,New South Wales,2429,-32.18785196,152.19877099,Mid-Coast,Regional centres and other regional areas
Bunyan,New South Wales,2630,-36.1510555,149.16789673,Snowy Monaro,Regional centres and other regional areas
Burcher,New South Wales,2671,-33.48974288,147.2359033,Lachlan,Regional centres and other regional areas
Bureen,New South Wales,2328,-32.46540604,150.73935846,Muswellbrook,Regional centres and other regional areas
Burnt Bridge,New South Wales,2440,-31.10886953,152.8026761,Kempsey,Regional centres and other regional areas
Burnt Yards,New South Wales,2792,-33.58037822,149.02453027,Blayney,Regional centres and other regional areas
Buronga,New South Wales,2739,-34.15789287,142.19111147,Wentworth,Regional centres and other regional areas
Burra (Queanbeyan-Palerang Regional - NSW),New South Wales,2620,-35.55937935,149.22352927,Queanbeyan-Palerang,Regional centres and other regional areas
Burra (Snowy Valleys - NSW),New South Wales,2653,-35.82824303,148.08995561,Snowy Valleys,Regional centres and other regional areas
Burra Creek,New South Wales,2722,-34.89720235,148.00504207,Cootamundra-Gundagai,Regional centres and other regional areas
Burraboi,New South Wales,2732,-35.34169452,144.32800085,Murray River,Regional centres and other regional areas
Burradoo,New South Wales,2576,-34.50331089,150.41161747,Wingecarribee,Regional centres and other regional areas
Burraga,New South Wales,2795,-33.9109929,149.53696064,Oberon,Regional centres and other regional areas
Burragate,New South Wales,2550,-37.00345373,149.64475416,Bega Valley,Regional centres and other regional areas
Burrandana,New South Wales,2650,-35.40953499,147.35307813,Wagga Wagga,Regional centres and other regional areas
Burrangong,New South Wales,2594,-34.29154538,148.24815249,Hilltops,Regional centres and other regional areas
Burrapine,New South Wales,2447,-30.72708818,152.6381787,Nambucca Valley,Regional centres and other regional areas
Burrawang,New South Wales,2577,-34.58261672,150.51328061,Wingecarribee,Regional centres and other regional areas
Burrell Creek,New South Wales,2429,-31.94824096,152.30044077,Mid-Coast,Regional centres and other regional areas
Burren Junction,New South Wales,2386,-30.05188457,148.86404445,Walgett,Regional centres and other regional areas
Burrier,New South Wales,2540,-34.8733477,150.44025442,Shoalhaven,Regional centres and other regional areas
Burrill Lake,New South Wales,2539,-35.40109805,150.43324471,Shoalhaven,Regional centres and other regional areas
Burringbar,New South Wales,2483,-28.42118027,153.463084,Tweed,Regional centres and other regional areas
Burrinjuck,New South Wales,2582,-34.95649598,148.61153723,Yass Valley,Regional centres and other regional areas
Burroway,New South Wales,2821,-32.05867561,148.3262719,Narromine,Regional centres and other regional areas
Burrumbuttock,New South Wales,2642,-35.83009378,146.79472015,Greater Hume,Regional centres and other regional areas
Burrundulla,New South Wales,2850,-32.62665122,149.63530132,Mid-Western,Regional centres and other regional areas
Burrungubugge,New South Wales,2624,-36.31503778,148.45717807,Snowy Monaro,Regional centres and other regional areas
Busbys Flat,New South Wales,2469,-29.06306264,152.7727849,Richmond Valley,Regional centres and other regional areas
Bushells Ridge,New South Wales,2259,-33.2030155,151.47295058,Central Coast (NSW),Cities and major regional centres
Buttaba,New South Wales,2283,-33.05358712,151.57533953,Lake Macquarie,Cities and major regional centres
Buttai,New South Wales,2323,-32.83250932,151.56004512,Cessnock,Regional centres and other regional areas
Butterwick,New South Wales,2321,-32.64965025,151.6455341,Port Stephens,Regional centres and other regional areas
Byabarra,New South Wales,2446,-31.53612457,152.55693624,Port Macquarie-Hastings,Regional centres and other regional areas
Byadbo Wilderness,New South Wales,2628,-36.83025433,148.58234841,Snowy Monaro,Regional centres and other regional areas
Byangum,New South Wales,2484,-28.35834752,153.36167164,Tweed,Regional centres and other regional areas
Bylong,New South Wales,2849,-32.38428152,150.15934508,Mid-Western,Regional centres and other regional areas
Byng,New South Wales,2800,-33.34773451,149.24512953,Cabonne,Regional centres and other regional areas
Byrock,New South Wales,2831,-30.64331469,146.36346508,Bourke,Regional centres and other regional areas
Byron Bay,New South Wales,2481,-28.65591836,153.62079136,Byron,Regional centres and other regional areas
Byrrill Creek,New South Wales,2484,-28.43766948,153.24017055,Tweed,Regional centres and other regional areas
Bywong,New South Wales,2621,-35.17206542,149.3295748,Queanbeyan-Palerang,Regional centres and other regional areas
Cabarita Beach,New South Wales,2488,-28.34657426,153.57316596,Tweed,Regional centres and other regional areas
Cabbage Tree Island (Ballina - NSW),New South Wales,2477,-28.98044458,153.45685449,Ballina,Regional centres and other regional areas
Cabbage Tree Island (Mid-Coast - NSW),New South Wales,2430,-31.94590452,152.59001178,Mid-Coast,Regional centres and other regional areas
Cabramurra,New South Wales,2629,-35.97659016,148.44779557,Snowy Valleys,Regional centres and other regional areas
Cadgee (NSW),New South Wales,2545,-36.15835781,149.90541731,Eurobodalla,Regional centres and other regional areas
Cadia,New South Wales,2800,-33.44294251,149.00891264,Cabonne,Regional centres and other regional areas
Caerleon,New South Wales,2850,-32.57877582,149.55341514,Mid-Western,Regional centres and other regional areas
Caffreys Flat,New South Wales,2424,-31.78669067,152.05954127,Mid-Coast,Regional centres and other regional areas
Cairncross,New South Wales,2446,-31.3443892,152.68151641,Port Macquarie-Hastings,Regional centres and other regional areas
Calala,New South Wales,2340,-31.1687858,150.97766283,Tamworth,Regional centres and other regional areas
Calamia,New South Wales,2460,-29.83745106,153.11733525,Clarence Valley,Regional centres and other regional areas
Calderwood,New South Wales,2527,-34.5584164,150.72879276,Shellharbour,Regional centres and other regional areas
Caldwell,New South Wales,2710,-35.59488834,144.51179232,Murray River,Regional centres and other regional areas
Calga,New South Wales,2250,-33.42778519,151.22559213,Central Coast (NSW),Regional centres and other regional areas
Califat,New South Wales,2729,-35.24659707,148.09927738,Snowy Valleys,Regional centres and other regional areas
Calimo,New South Wales,2710,-35.42499598,144.56494193,Murray River,Regional centres and other regional areas
Callaghan,New South Wales,2308,-32.89203443,151.70531997,Newcastle,Cities and major regional centres
Callaghans Creek,New South Wales,2422,-31.85784214,152.00577427,Mid-Coast,Regional centres and other regional areas
Callala Bay,New South Wales,2540,-34.99080255,150.71961962,Shoalhaven,Regional centres and other regional areas
Callala Beach,New South Wales,2540,-35.00282717,150.69732666,Shoalhaven,Regional centres and other regional areas
Calliope (NSW),New South Wales,2462,-29.61770488,153.07774444,Clarence Valley,Regional centres and other regional areas
Caloola,New South Wales,2795,-33.63984675,149.44286994,Bathurst,Regional centres and other regional areas
Cambalong,New South Wales,2632,-36.90088235,149.14046237,Snowy Monaro,Regional centres and other regional areas
Camberwell (NSW),New South Wales,2330,-32.49002243,151.0856859,Singleton,Regional centres and other regional areas
Cambewarra,New South Wales,2540,-34.81392546,150.5445556,Shoalhaven,Regional centres and other regional areas
Cambewarra Village,New South Wales,2540,-34.82248273,150.55875508,Shoalhaven,Regional centres and other regional areas
Camboon (NSW),New South Wales,2849,-32.70299968,149.95589327,Mid-Western,Regional centres and other regional areas
Cambra,New South Wales,2420,-32.45123862,151.86491389,Dungog,Regional centres and other regional areas
Cambridge Plateau,New South Wales,2469,-28.8039476,152.73173304,Kyogle,Regional centres and other regional areas
Camden Head,New South Wales,2443,-31.64366412,152.83094655,Port Macquarie-Hastings,Regional centres and other regional areas
Cameron Park,New South Wales,2285,-32.90398766,151.61127255,Lake Macquarie,Cities and major regional centres
Camerons Creek,New South Wales,2359,-30.33658853,151.09814749,Uralla,Regional centres and other regional areas
Camira (NSW),New South Wales,2469,-29.2153921,152.94140201,Richmond Valley,Regional centres and other regional areas
Campvale,New South Wales,2318,-32.77572723,151.8524816,Port Stephens,Regional centres and other regional areas
Cams Wharf,New South Wales,2281,-33.12580973,151.61756309,Lake Macquarie,Cities and major regional centres
Canadian Lead,New South Wales,2850,-32.40468914,149.58472239,Mid-Western,Regional centres and other regional areas
Canbelego,New South Wales,2835,-31.51030531,146.26575528,Cobar,Regional centres and other regional areas
Candelo,New South Wales,2550,-36.78807094,149.66660499,Bega Valley,Regional centres and other regional areas
Cangai,New South Wales,2460,-29.48716523,152.44163358,Clarence Valley,Regional centres and other regional areas
Caniaba,New South Wales,2480,-28.83260888,153.21101629,Lismore,Regional centres and other regional areas
Canobolas,New South Wales,2800,-33.32835125,149.04051327,Orange,Regional centres and other regional areas
Canonba,New South Wales,2825,-31.32513724,147.43633867,Bogan,Regional centres and other regional areas
Canowindra,New South Wales,2804,-33.53428283,148.63781911,Cabonne,Regional centres and other regional areas
Canton Beach,New South Wales,2263,-33.27578711,151.54696001,Central Coast (NSW),Regional centres and other regional areas
Canyonleigh,New South Wales,2577,-34.50393435,150.140203,Wingecarribee,Regional centres and other regional areas
Caparra,New South Wales,2429,-31.7213156,152.23305779,Mid-Coast,Regional centres and other regional areas
Capeen Creek,New South Wales,2469,-28.54900446,152.65133601,Kyogle,Regional centres and other regional areas
Capertee,New South Wales,2846,-33.12827187,150.01020037,Lithgow,Regional centres and other regional areas
Capoompeta,New South Wales,2371,-29.38906164,152.05283446,Glen Innes Severn,Regional centres and other regional areas
Captains Flat,New South Wales,2623,-35.57963161,149.42859834,Queanbeyan-Palerang,Regional centres and other regional areas
Carabost,New South Wales,2650,-35.61216909,147.71732957,Greater Hume,Regional centres and other regional areas
Caragabal,New South Wales,2810,-33.85159938,147.68539446,Weddin,Regional centres and other regional areas
Carcalgong,New South Wales,2850,-32.85574269,149.71110022,Mid-Western,Regional centres and other regional areas
Carcoar,New South Wales,2791,-33.61663224,149.13602462,Blayney,Regional centres and other regional areas
Cardiff (NSW),New South Wales,2285,-32.94171656,151.65818817,Lake Macquarie,Cities and major regional centres
Cardiff Heights,New South Wales,2285,-32.93648943,151.67434583,Lake Macquarie,Cities and major regional centres
Cardiff South,New South Wales,2285,-32.95494204,151.66354556,Lake Macquarie,Cities and major regional centres
Carey Bay,New South Wales,2283,-33.02661669,151.60571954,Lake Macquarie,Cities and major regional centres
Cargo,New South Wales,2800,-33.44122428,148.82415758,Cabonne,Regional centres and other regional areas
Carinda,New South Wales,2831,-30.38443375,147.5727092,Walgett,Regional centres and other regional areas
Carlaminda,New South Wales,2630,-36.26214863,149.27365542,Snowy Monaro,Regional centres and other regional areas
Carnham,New South Wales,2460,-29.33723476,152.58482284,Clarence Valley,Regional centres and other regional areas
Carool,New South Wales,2486,-28.22585193,153.42705211,Tweed,Regional centres and other regional areas
Caroona,New South Wales,2343,-31.38675334,150.40622557,Gunnedah,Regional centres and other regional areas
Carrabolla,New South Wales,2311,-32.19048563,151.38510804,Dungog,Regional centres and other regional areas
Carrai,New South Wales,2440,-30.83288797,152.233622,Armidale,Regional centres and other regional areas
Carrathool,New South Wales,2711,-34.42998453,145.41879465,Carrathool,Regional centres and other regional areas
Carrick (NSW),New South Wales,2580,-34.70574795,149.9055956,Goulburn Mulwaree,Regional centres and other regional areas
Carrington (Mid-Coast - NSW),New South Wales,2324,-32.6606014,152.01815915,Mid-Coast,Regional centres and other regional areas
Carrington (Newcastle - NSW),New South Wales,2294,-32.91180964,151.76628763,Newcastle,Cities and major regional centres
Carrington Falls,New South Wales,2577,-34.64759886,150.64411099,Kiama,Regional centres and other regional areas
Carroll,New South Wales,2340,-31.01255152,150.46123476,Gunnedah,Regional centres and other regional areas
Carrowbrook,New South Wales,2330,-32.29112514,151.33976754,Singleton,Regional centres and other regional areas
Carrs Creek,New South Wales,2460,-29.65687566,152.92156745,Clarence Valley,Regional centres and other regional areas
Carrs Island,New South Wales,2460,-29.67109382,152.91209623,Clarence Valley,Regional centres and other regional areas
Carrs Peninsula,New South Wales,2460,-29.65300701,152.90425591,Clarence Valley,Regional centres and other regional areas
Cartwrights Hill,New South Wales,2650,-35.07480272,147.39199139,Wagga Wagga,Regional centres and other regional areas
Carwell,New South Wales,2849,-32.84082128,149.90333081,Mid-Western,Regional centres and other regional areas
Carwoola,New South Wales,2620,-35.36587727,149.32146247,Queanbeyan-Palerang,Regional centres and other regional areas
Cascade (NSW),New South Wales,2453,-30.22836537,152.78374067,Bellingen,Regional centres and other regional areas
Casino,New South Wales,2470,-28.84721694,153.03105682,Richmond Valley,Regional centres and other regional areas
Cassilis (NSW),New South Wales,2329,-31.96856867,150.03595339,Upper Hunter,Regional centres and other regional areas
Castle Doyle,New South Wales,2350,-30.63459914,151.78087022,Armidale,Regional centres and other regional areas
Castle Rock,New South Wales,2333,-32.23916203,150.75752526,Muswellbrook,Regional centres and other regional areas
Casuarina (NSW),New South Wales,2487,-28.30040923,153.57064458,Tweed,Regional centres and other regional areas
Catalina,New South Wales,2536,-35.73028944,150.1852641,Eurobodalla,Regional centres and other regional areas
Cathcart (NSW),New South Wales,2632,-36.85777758,149.42990759,Snowy Monaro,Regional centres and other regional areas
Catherine Hill Bay,New South Wales,2281,-33.14732581,151.62475536,Lake Macquarie,Cities and major regional centres
Cathundral,New South Wales,2823,-32.01640593,147.68658715,Warren,Regional centres and other regional areas
Cattai,New South Wales,2756,-33.54568664,150.9143366,The Hills,Regional centres and other regional areas
Cattle Creek (NSW),New South Wales,2339,-31.77013828,150.26607208,Liverpool Plains,Regional centres and other regional areas
Cavan (NSW),New South Wales,2582,-35.0291634,148.8342253,Yass Valley,Regional centres and other regional areas
Caves Beach,New South Wales,2281,-33.10614332,151.64373696,Lake Macquarie,Cities and major regional centres
Cawongla,New South Wales,2474,-28.6028554,153.09027914,Kyogle,Regional centres and other regional areas
Cedar Brush Creek,New South Wales,2259,-33.16090391,151.24985285,Central Coast (NSW),Cities and major regional centres
Cedar Creek (Cessnock - NSW),New South Wales,2325,-32.83722473,151.17189512,Cessnock,Regional centres and other regional areas
Cedar Creek (Tweed - NSW),New South Wales,2484,-28.41835655,153.26233709,Tweed,Regional centres and other regional areas
Cedar Party,New South Wales,2429,-31.81216232,152.39193723,Mid-Coast,Regional centres and other regional areas
Cedar Point,New South Wales,2474,-28.69014807,153.00218387,Kyogle,Regional centres and other regional areas
Cells River,New South Wales,2424,-31.56697805,152.11674386,Mid-Coast,Regional centres and other regional areas
Central Colo,New South Wales,2756,-33.42499729,150.75721158,Hawkesbury,Regional centres and other regional areas
Central Macdonald,New South Wales,2775,-33.33549211,150.97301137,Hawkesbury,Regional centres and other regional areas
Central Mangrove,New South Wales,2250,-33.28894115,151.24834591,Central Coast (NSW),Regional centres and other regional areas
Central Tilba,New South Wales,2546,-36.30478404,150.07769826,Eurobodalla,Regional centres and other regional areas
Cessnock,New South Wales,2325,-32.85286963,151.36700054,Cessnock,Regional centres and other regional areas
Chaelundi,New South Wales,2460,-29.97431082,152.42860573,Clarence Valley,Regional centres and other regional areas
Chain Valley Bay,New South Wales,2259,-33.16560734,151.57566096,Central Coast (NSW),Cities and major regional centres
Chakola,New South Wales,2630,-36.07383673,149.21150216,Snowy Monaro,Regional centres and other regional areas
Chambigne,New South Wales,2460,-29.7614245,152.74437274,Clarence Valley,Regional centres and other regional areas
Charbon,New South Wales,2848,-32.8865319,149.97055601,Mid-Western,Regional centres and other regional areas
Charles Sturt University,New South Wales,2678,-35.05888167,147.3545383,Wagga Wagga,Regional centres and other regional areas
Charlestown (NSW),New South Wales,2290,-32.96677928,151.69398303,Lake Macquarie,Cities and major regional centres
Charleys Forest,New South Wales,2622,-35.36013007,150.00281535,Queanbeyan-Palerang,Regional centres and other regional areas
Charlotte Bay,New South Wales,2428,-32.34857556,152.50935349,Mid-Coast,Regional centres and other regional areas
Charlton (NSW),New South Wales,2795,-33.67093644,149.63711216,Bathurst,Regional centres and other regional areas
Charmhaven,New South Wales,2263,-33.22590445,151.49405855,Central Coast (NSW),Regional centres and other regional areas
Chatham Valley,New South Wales,2787,-33.84969734,149.87916561,Oberon,Regional centres and other regional areas
Chatsbury,New South Wales,2580,-34.5394534,149.80734465,Upper Lachlan,Regional centres and other regional areas
Chatsworth (NSW),New South Wales,2469,-29.37933555,153.24788128,Clarence Valley,Regional centres and other regional areas
Cherry Tree Hill,New South Wales,2360,-29.56117051,151.00757001,Inverell,Regional centres and other regional areas
Chichester (NSW),New South Wales,2420,-32.16532521,151.62276331,Dungog,Regional centres and other regional areas
Chilcotts Creek,New South Wales,2339,-31.67466105,150.79742204,Liverpool Plains,Regional centres and other regional areas
Chilcotts Grass,New South Wales,2480,-28.83315239,153.34357283,Lismore,Regional centres and other regional areas
Chillingham,New South Wales,2484,-28.31233919,153.28467472,Tweed,Regional centres and other regional areas
Chinderah,New South Wales,2487,-28.254545,153.53713505,Tweed,Regional centres and other regional areas
Chinnock,New South Wales,2550,-36.697933,149.93292588,Bega Valley,Regional centres and other regional areas
Chisholm (NSW),New South Wales,2322,-32.75472931,151.63455921,Maitland,Regional centres and other regional areas
Chittaway Bay,New South Wales,2261,-33.32636013,151.4366623,Central Coast (NSW),Regional centres and other regional areas
Chittaway Point,New South Wales,2261,-33.32168819,151.44524515,Central Coast (NSW),Regional centres and other regional areas
Chowan Creek,New South Wales,2484,-28.45378101,153.37397129,Tweed,Regional centres and other regional areas
Clandulla,New South Wales,2848,-32.92782999,149.95965077,Mid-Western,Regional centres and other regional areas
Clare (NSW),New South Wales,2711,-33.50494856,143.96807883,Balranald,Regional centres and other regional areas
Clarence,New South Wales,2790,-33.47404669,150.21977104,Lithgow,Regional centres and other regional areas
Clarence Town,New South Wales,2321,-32.61127704,151.82668007,Dungog,Regional centres and other regional areas
Clarendon (NSW),New South Wales,2756,-33.61257563,150.7905202,Hawkesbury,Regional centres and other regional areas
Clarenza,New South Wales,2460,-29.71150302,153.00356672,Clarence Valley,Regional centres and other regional areas
Clear Creek,New South Wales,2795,-33.33004127,149.71589126,Bathurst,Regional centres and other regional areas
Clear Range,New South Wales,2620,-35.69976708,149.11615413,Snowy Monaro,Regional centres and other regional areas
Clearfield,New South Wales,2469,-29.15337273,152.91510852,Richmond Valley,Regional centres and other regional areas
Clergate,New South Wales,2800,-33.18875847,149.11571981,Cabonne,Regional centres and other regional areas
Cleveland (NSW),New South Wales,2530,-34.50291501,150.77087582,Wollongong,Cities and major regional centres
Clifden,New South Wales,2460,-29.51435498,152.94287999,Clarence Valley,Regional centres and other regional areas
Cliftleigh,New South Wales,2321,-32.78764532,151.51863575,Cessnock,Regional centres and other regional areas
Clifton (NSW),New South Wales,2515,-34.25953978,150.9701757,Wollongong,Cities and major regional centres
Clifton Grove,New South Wales,2800,-33.2450104,149.17824706,Cabonne,Regional centres and other regional areas
Clothiers Creek,New South Wales,2484,-28.33052483,153.51228312,Tweed,Regional centres and other regional areas
Clouds Creek,New South Wales,2453,-30.07762068,152.64736942,Clarence Valley,Regional centres and other regional areas
Clunes (NSW),New South Wales,2480,-28.72659479,153.40668908,Lismore,Regional centres and other regional areas
Clybucca,New South Wales,2440,-30.93650322,152.94441419,Kempsey,Regional centres and other regional areas
Clydesdale (NSW),New South Wales,2330,-32.56998198,151.21189326,Singleton,Regional centres and other regional areas
Coal Point,New South Wales,2283,-33.03955137,151.61127838,Lake Macquarie,Cities and major regional centres
Coalcliff,New South Wales,2508,-34.24598362,150.97253993,Wollongong,Cities and major regional centres
Coaldale,New South Wales,2460,-29.39787988,152.81017956,Clarence Valley,Regional centres and other regional areas
Cobaki,New South Wales,2486,-28.20468422,153.45636071,Tweed,Regional centres and other regional areas
Cobaki Lakes,New South Wales,2486,-28.17367723,153.47831945,Tweed,Regional centres and other regional areas
Cobar,New South Wales,2835,-31.44343889,145.79439189,Cobar,Regional centres and other regional areas
Cobar Park,New South Wales,2790,-33.46528447,150.15727886,Lithgow,Regional centres and other regional areas
Cobargo,New South Wales,2550,-36.38965532,149.87830727,Bega Valley,Regional centres and other regional areas
Cobark,New South Wales,2422,-31.91584766,151.69740796,Mid-Coast,Regional centres and other regional areas
Cobbadah,New South Wales,2347,-30.1968966,150.57304924,Gwydir,Regional centres and other regional areas
Cobbora,New South Wales,2844,-32.05390545,149.2572259,Warrumbungle,Regional centres and other regional areas
Cobramunga,New South Wales,2732,-35.44132241,143.88726023,Murray River,Regional centres and other regional areas
Cockwhy,New South Wales,2539,-35.55354337,150.31957034,Shoalhaven,Regional centres and other regional areas
Codrington (NSW),New South Wales,2471,-28.95730822,153.23964111,Richmond Valley,Regional centres and other regional areas
Coffee Camp,New South Wales,2480,-28.64882006,153.21798984,Lismore,Regional centres and other regional areas
Coffs Harbour,New South Wales,2450,-30.29586259,153.12699852,Coffs Harbour,Regional centres and other regional areas
Coggan,New South Wales,2849,-32.37090851,150.08814111,Mid-Western,Regional centres and other regional areas
Coila,New South Wales,2537,-36.00964936,150.09476041,Eurobodalla,Regional centres and other regional areas
Coldstream (NSW),New South Wales,2462,-29.60165135,153.10235519,Clarence Valley,Regional centres and other regional areas
Coleambally,New South Wales,2707,-34.79249931,145.8583389,Murrumbidgee,Regional centres and other regional areas
Coledale,New South Wales,2515,-34.287753,150.94140272,Wollongong,Cities and major regional centres
Colinroobie,New South Wales,2700,-34.45816191,146.574351,Narrandera,Regional centres and other regional areas
Colinton (NSW),New South Wales,2626,-35.86028469,149.19033266,Snowy Monaro,Regional centres and other regional areas
Collarenebri,New South Wales,2833,-29.38326921,148.55481949,Walgett,Regional centres and other regional areas
Collector,New South Wales,2581,-34.93429307,149.42132355,Yass Valley,Regional centres and other regional areas
Collendina,New South Wales,2646,-35.97432879,146.22266171,Federation,Regional centres and other regional areas
Collerina,New South Wales,2839,-29.51177005,146.69177932,Brewarrina,Regional centres and other regional areas
Collie (NSW),New South Wales,2827,-31.68143469,148.30182486,Warren,Regional centres and other regional areas
Collingullie,New South Wales,2650,-35.09174748,147.10427677,Wagga Wagga,Regional centres and other regional areas
Collingwood (NSW),New South Wales,2850,-32.60185784,149.44953152,Mid-Western,Regional centres and other regional areas
Collins Creek,New South Wales,2474,-28.47891186,153.03452713,Kyogle,Regional centres and other regional areas
Collombatti,New South Wales,2440,-30.9800923,152.80973662,Kempsey,Regional centres and other regional areas
Collum Collum,New South Wales,2460,-29.25413056,152.47846669,Clarence Valley,Regional centres and other regional areas
Colly Blue,New South Wales,2343,-31.45392058,150.1465413,Liverpool Plains,Regional centres and other regional areas
Colo (Bathurst Regional - NSW),New South Wales,2795,-33.77868842,149.26559995,Bathurst,Regional centres and other regional areas
Colo (Hawkesbury - NSW),New South Wales,2756,-33.41632238,150.80705913,Hawkesbury,Regional centres and other regional areas
Colo Heights,New South Wales,2756,-33.29678775,150.69331228,Hawkesbury,Regional centres and other regional areas
Colo Vale,New South Wales,2575,-34.39478699,150.45617497,Wingecarribee,Regional centres and other regional areas
Colongra,New South Wales,2262,-33.20686407,151.54359208,Central Coast (NSW),Regional centres and other regional areas
Comara,New South Wales,2440,-30.87368724,152.33626727,Kempsey,Regional centres and other regional areas
Combaning,New South Wales,2666,-34.50819138,147.65393629,Temora,Regional centres and other regional areas
Combara,New South Wales,2829,-31.14916831,148.31106842,Coonamble,Regional centres and other regional areas
Comberton,New South Wales,2540,-34.96828013,150.64836942,Shoalhaven,Regional centres and other regional areas
Comboyne,New South Wales,2429,-31.5983041,152.46741976,Port Macquarie-Hastings,Regional centres and other regional areas
Come By Chance,New South Wales,2832,-30.35623488,148.45475276,Walgett,Regional centres and other regional areas
Comerong Island,New South Wales,2540,-34.88515602,150.73611517,Shoalhaven,Regional centres and other regional areas
Commissioners Creek,New South Wales,2484,-28.49885401,153.3321032,Tweed,Regional centres and other regional areas
Comobella,New South Wales,2820,-32.37062032,148.97159283,Dubbo,Regional centres and other regional areas
Conargo,New South Wales,2710,-35.24272858,145.1720127,Edward River,Regional centres and other regional areas
Condobolin,New South Wales,2877,-33.04661342,147.18745656,Lachlan,Regional centres and other regional areas
Condong,New South Wales,2484,-28.31132653,153.44080334,Tweed,Regional centres and other regional areas
Coneac,New South Wales,2422,-31.85533883,151.81591341,Mid-Coast,Regional centres and other regional areas
Congarinni,New South Wales,2447,-30.7538828,152.87341203,Nambucca Valley,Regional centres and other regional areas
Congarinni North,New South Wales,2447,-30.68254231,152.88461996,Nambucca Valley,Regional centres and other regional areas
Congewai,New South Wales,2325,-32.99178006,151.3009117,Cessnock,Regional centres and other regional areas
Congo,New South Wales,2537,-35.95687133,150.1347407,Eurobodalla,Regional centres and other regional areas
Conimbia,New South Wales,2829,-30.67685186,147.99427632,Coonamble,Regional centres and other regional areas
Coniston,New South Wales,2500,-34.43791759,150.8821935,Wollongong,Cities and major regional centres
Conjola,New South Wales,2539,-35.22005623,150.41569429,Shoalhaven,Regional centres and other regional areas
Conjola Park,New South Wales,2539,-35.26689505,150.44190136,Shoalhaven,Regional centres and other regional areas
Cookamidgera,New South Wales,2870,-33.24213611,148.29738684,Forbes,Regional centres and other regional areas
Cookardinia,New South Wales,2650,-35.55349659,147.24640939,Greater Hume,Regional centres and other regional areas
Cooks Gap,New South Wales,2850,-32.35568243,149.71169653,Mid-Western,Regional centres and other regional areas
Cooks Hill,New South Wales,2300,-32.93291975,151.76800455,Newcastle,Cities and major regional centres
Cooks Myalls,New South Wales,2870,-33.02980552,147.98354651,Parkes,Regional centres and other regional areas
Coolabah,New South Wales,2831,-31.01994247,146.68887112,Bogan,Regional centres and other regional areas
Coolac,New South Wales,2727,-34.91039649,148.21190141,Cootamundra-Gundagai,Regional centres and other regional areas
Coolagolite,New South Wales,2550,-36.43364313,149.9725989,Bega Valley,Regional centres and other regional areas
Coolah,New South Wales,2843,-31.7926839,149.75984815,Warrumbungle,Regional centres and other regional areas
Coolamon,New South Wales,2701,-34.81502332,147.19263457,Coolamon,Regional centres and other regional areas
Coolangatta (NSW),New South Wales,2535,-34.85818757,150.71323878,Shoalhaven,Cities and major regional centres
Coolangubra,New South Wales,2550,-36.99970911,149.46035434,Bega Valley,Regional centres and other regional areas
Coolatai,New South Wales,2402,-29.28489345,150.73855808,Gwydir,Regional centres and other regional areas
Cooleman,New South Wales,2611,-35.62964955,148.66038955,Snowy Valleys,Regional centres and other regional areas
Cooleys Creek,New South Wales,2729,-35.3397188,148.08968146,Snowy Valleys,Regional centres and other regional areas
Coolgardie (NSW),New South Wales,2478,-28.91591082,153.46222498,Ballina,Regional centres and other regional areas
Coolongolook,New South Wales,2423,-32.22294434,152.32275162,Mid-Coast,Regional centres and other regional areas
Coolringdon,New South Wales,2630,-36.25922756,148.97799054,Snowy Monaro,Regional centres and other regional areas
Coolumbooka,New South Wales,2632,-36.91921328,149.33908331,Snowy Monaro,Regional centres and other regional areas
Coolumburra,New South Wales,2622,-35.04802609,150.10502053,Shoalhaven,Regional centres and other regional areas
Cooma (NSW),New South Wales,2630,-36.25093158,149.11265843,Snowy Monaro,Regional centres and other regional areas
Coomba Bay,New South Wales,2428,-32.26816193,152.43855549,Mid-Coast,Regional centres and other regional areas
Coomba Park,New South Wales,2428,-32.23771938,152.45511572,Mid-Coast,Regional centres and other regional areas
Coombadjha,New South Wales,2460,-29.38894791,152.4851349,Clarence Valley,Regional centres and other regional areas
Coombell,New South Wales,2470,-29.0084073,152.94680882,Richmond Valley,Regional centres and other regional areas
Coomealla,New South Wales,2717,-34.08870414,142.09862246,Wentworth,Regional centres and other regional areas
Coomoo Coomoo,New South Wales,2343,-31.56918538,150.10908346,Liverpool Plains,Regional centres and other regional areas
Coonabarabran,New South Wales,2357,-31.31583375,149.27081707,Warrumbungle,Regional centres and other regional areas
Coonamble,New South Wales,2829,-30.91902033,148.34485506,Coonamble,Regional centres and other regional areas
Coongbar,New South Wales,2469,-29.10257071,152.69302081,Clarence Valley,Regional centres and other regional areas
Cooperabung,New South Wales,2441,-31.29569728,152.82247356,Port Macquarie-Hastings,Regional centres and other regional areas
Coopernook,New South Wales,2426,-31.8285614,152.6174897,Mid-Coast,Regional centres and other regional areas
Coopers Gully,New South Wales,2550,-36.647527,149.79785372,Bega Valley,Regional centres and other regional areas
Coopers Shoot,New South Wales,2479,-28.69232006,153.5691275,Byron,Regional centres and other regional areas
Cooplacurripa,New South Wales,2424,-31.58468235,151.91446425,Mid-Coast,Regional centres and other regional areas
Coorabell,New South Wales,2479,-28.6292856,153.48192982,Byron,Regional centres and other regional areas
Cooranbong,New South Wales,2265,-33.0501252,151.46390231,Lake Macquarie,Cities and major regional centres
Cootamundra,New South Wales,2590,-34.65201456,148.02281758,Cootamundra-Gundagai,Regional centres and other regional areas
Cootralantra,New South Wales,2628,-36.28763531,148.85610219,Snowy Monaro,Regional centres and other regional areas
Cooyal,New South Wales,2850,-32.44485467,149.77429983,Mid-Western,Regional centres and other regional areas
Copacabana,New South Wales,2251,-33.48690875,151.43587106,Central Coast (NSW),Regional centres and other regional areas
Cope,New South Wales,2852,-32.27243332,149.646548,Mid-Western,Regional centres and other regional areas
Copeland,New South Wales,2422,-31.97844221,151.82566725,Mid-Coast,Regional centres and other regional areas
Copeton,New South Wales,2360,-29.88525976,150.93230531,Inverell,Regional centres and other regional areas
Copmanhurst,New South Wales,2460,-29.57460444,152.79754265,Clarence Valley,Regional centres and other regional areas
Coppabella (NSW),New South Wales,2644,-35.74690897,147.75047771,Greater Hume,Regional centres and other regional areas
Copperhannia,New South Wales,2795,-33.87692483,149.22131523,Bathurst,Regional centres and other regional areas
Coraki,New South Wales,2471,-28.98952085,153.27393404,Richmond Valley,Regional centres and other regional areas
Coralville,New South Wales,2443,-31.78752509,152.69592134,Mid-Coast,Regional centres and other regional areas
Coramba,New South Wales,2450,-30.19341506,153.03352374,Coffs Harbour,Regional centres and other regional areas
Corang,New South Wales,2622,-35.2105674,150.1290335,Queanbeyan-Palerang,Regional centres and other regional areas
Corangula,New South Wales,2440,-31.00083427,152.6778009,Kempsey,Regional centres and other regional areas
Corbie Hill,New South Wales,2705,-34.54285852,146.50276371,Leeton,Regional centres and other regional areas
Cordeaux,New South Wales,2526,-34.38383532,150.77508112,Wollongong,Cities and major regional centres
Cordeaux Heights,New South Wales,2526,-34.44414969,150.82700058,Wollongong,Cities and major regional centres
Coree,New South Wales,2710,-35.31276389,145.49770099,Edward River,Regional centres and other regional areas
